KEYid|Program_Name|DBA|Street|City|State|Zipcode|Phone|Certification|FullCertification|Longitude|Latitude|Geocode_Score
003F8C35-3782-43E6-BDB7-DCBCCE77C586|Project Cure, Inc.|Project Cure, Inc.|200 Daruma Parkway|Moraine|OH|45417|(937) 262-3500|Certified|2004-01-01 00:00:00.0000000|-84.25500145|39.70927261|95.77000000
005D32E7-A588-4DEC-9C57-B3D764A68738|Victory Clinical Services||401 Howard St.|Kalamazoo|MI|49001|(269) 344-4458|Certified|2004-02-29 00:00:00.0000000|-85.58850150|42.27374700|100.00000000
006A6359-C710-462C-B560-7E0B58FF860B|Southwood Interventions||5701 South Wood St.|Chicago|IL|60636|(773) 737-4600|Certified|2003-05-22 00:00:00.0000000|-87.66866250|41.79009600|100.00000000
008F6039-23B4-4CDA-9F35-2BE06A4BB27C|Connections Community Support Programs, Inc. - Naamans OTP||590 Naamans Road|Claymont|DE|19703|(833) 886-2277|Provisional||-75.45632619|39.81422784|100.00000000
00A62D03-5407-407C-B891-CAF59B6A7329|Metro Treatment Center of Alabama|Montgomery Metro Treatment Center|6001 East Shirley Lane|Montgomery|AL|36117|(334) 244-1618|Certified|2003-10-01 00:00:00.0000000|-86.20475054|32.36717569|100.00000000
00BCB7CE-CC9F-4033-A7D7-A62D64D5CBD6|BHG XXXVIII, LLC dba BHG Spartanburg Treatment Center||239 Access Road|Spartanburg|SC|29303|(864) 503-0207|Certified|2004-05-01 00:00:00.0000000|-81.98234564|34.99613277|100.00000000
00D3722F-AD9C-43F5-BC44-3ED18ABF720A|ADCARE Hospital Of Worcester, Inc.||107 Lincoln St.|Worcester|MA|1605|(508) 799-9000|Certified|2004-05-12 00:00:00.0000000|-71.79485400|42.27634800|100.00000000
00D3BB76-23DB-420C-B615-83F489B043F4|Virginia Treatment Center, LLC|Lynchburg Treatment Center|4000 Murray Place|Lynchburg|VA|24501|(434) 439-3283|Certified|2016-02-24 00:00:00.0000000|-79.16656609|37.38350359|100.00000000
00D6E622-0774-49CD-B556-F990EFA71FB6|Aegis Treatment Centers, LLC|Healthy Connections|955 West Center St.,Suite 1, 12A,12B &14|Manteca|CA|95337|(209) 239-9600|Certified|2015-11-17 00:00:00.0000000|-121.22997361|37.79917138|96.74000000
01183CEF-BC6B-40CC-A0EA-7A8A3CB17E02|Wheeling Treatment Center, LLC|Wheeling Treatment Center|40 Orrs Lane|Triadelphia|WV|26059|(304) 547-9197|Certified|2006-01-23 00:00:00.0000000|-80.68440202|40.08347332|90.15000000
01717494-EE1E-468C-A583-6F7F5B705F0B|Comprehensive Addiction Treatment Services (CATS)|Inova CATS Inpatient and Day Treatment Services|3300 Gallows Rd.|Falls Church|VA|22042|(703) 776-7782|Certified|2005-09-09 00:00:00.0000000|-77.22603591|38.85826832|100.00000000
017A7ACA-531E-431D-A039-C98D5AAD5E3A|Correctional Health Services|Durango Jail|2680 S. 28th Dr.|Phoenix|AZ|85009|(602) 526-1555|Certified|2018-05-08 00:00:00.0000000|-112.12069050|33.44735700|94.40000000
01DD7F33-AC1D-48F0-936B-63B767B7BDEB|Aegis Treatment Centers, LLC||1322 N. Avalon Blvd.|Wilmington|CA|90744|(310) 513-1300|Certified|2003-12-01 00:00:00.0000000|-118.26316619|33.78949357|100.00000000
01E216CF-9B71-4BCA-BFD4-11A55218E759|Milwaukee Health Services System, LLC|10th Street Comprehensive Treatment Center|4800 South Tenth St.|Milwaukee|WI|53221|(414) 744-5370|Certified|2003-09-01 00:00:00.0000000|-87.92461996|42.95716762|100.00000000
02308D7A-43A1-4A99-8E80-91BAAEC0D8E1|Mission Treatment Centers, Inc.||617 North Scottsdale Road, Suite D|Scottsdale|AZ|85257|(480) 990-3720|Certified|2004-05-01 00:00:00.0000000|-111.92637860|33.45472755|100.00000000
02377E55-581E-4850-B15A-9EF276E6FB2E|VAMC - San Francisco Substance Abuse Treatment Clinic|VAMC - San Francisco Substance Abuse Treatment Clinic|4150 Clement St., Building 1, Room 12|San Francisco|CA|94121|(415) 750-2050|Certified|2003-08-22 00:00:00.0000000|-122.50512000|37.78176600|98.72000000
02705E98-D1AA-4F40-8AEA-CF1E8E129430|Pennsylvania Psychiatric Institute||2501 North 3rd St.|Harrisburg|PA|17110|(717) 480-8083|Certified|2018-12-13 00:00:00.0000000|-76.89852000|40.28575500|100.00000000
027AB2E3-4D0D-44D5-80DC-635C5C3E1C18|Deerfield Florida House|Deerfield Florida House|504 South Federal Highway|Deerfield Beach|FL|33441|(866) 421-6242|Certified|2015-05-28 00:00:00.0000000|-80.09178011|26.31105095|100.00000000
028902D8-085E-4B51-A173-F1D9298E75CE|Community Medical Services-Mesa||6116 East Arbor Ave|Mesa|AZ|85206|(602)888-3342|Certified|2015-04-16 00:00:00.0000000|-111.69889350|33.41341704|100.00000000
02D6928A-4B28-49F0-8A4D-3770FEB4FF8E|Kirkbride Center - A Better Way||111 North 49th St.|Philadelphia|PA|19139|(215) 471-2600|Certified|2005-10-24 00:00:00.0000000|-75.21939877|39.96116858|100.00000000
02EAF29A-5486-43DB-BA12-47DB7F96F1A5|Phoenix House Detoxification Center|Phoenix Houses of New England, Inc.|251 Main St.|Exeter|RI|2822|(401) 295-0960|Certified|2006-02-01 00:00:00.0000000|-71.53673964|41.54783691|100.00000000
03008945-6F89-4397-8F87-1A3C841120B5|Pinnacle Treatment Centers PA-II, LLC|Alliance Medical Services Ensign II|739 Ensign Ave.|Pittsburgh|PA|15226|(412) 488-6360|Certified|2005-07-25 00:00:00.0000000|-80.00442550|40.40619235|100.00000000
032BCECF-075A-4657-AC91-504D7C1FFB0E|Metro Treatment of Florida, LP|Quad County Treatment Center|216 NE First Avenue|Ocala|FL|34470|(352) 732-6565|Certified|2003-11-01 00:00:00.0000000|-82.13602059|29.18904764|100.00000000
03885A99-3D15-48E9-A41F-E507EB96F19D|Transcultural Health Development, Inc.|Coastal Recovery Center|117 East Harry Bridges Blvd.|Wilmington|CA|90744|(310) 549-8383|Certified|2003-09-01 00:00:00.0000000|-118.26096015|33.77135180|100.00000000
03A9DA94-174F-402B-8E4A-C52DB4FC5C4C|Glenwood Life Counseling Center, Inc.|Glenwood LIfe Counsenling Center|516 Glenwood Ave.|Baltimore|MD|21212|(410) 323-9811|Certified|2005-02-01 00:00:00.0000000|-76.60855014|39.35392352|100.00000000
03E3F348-075A-4D08-858D-965CCA39C9A0|CRC Health of Tennessee|Mirror Lake Recovery Center|999 Girl Scout Rd|Burns|TN|37029|(615) 446-7034|Certified|2017-04-26 00:00:00.0000000|-87.26184473|36.05274392|100.00000000
044C86CE-C5DD-4A6B-BEF9-0C295CEC1DE7|McLeod Addictive Disease Center - Charlotte|McLeod Center|521 Clanton Road|Charlotte|NC|28217|(704) 332-9001|Certified|2003-02-01 00:00:00.0000000|-80.87980235|35.19675462|100.00000000
0471E104-EE0F-4532-BE3D-EA414F3CD7C3|R.J. Blackley ADATC (Alcohol and Drug Abuse Treatment Center)|R.J. Blackley ADATC|100 H Street|Butner|NC|27509|(919) 575-7928|Certified||-78.77573570|36.13686140|99.55000000
048B13DD-71F2-4842-9025-60FAA116EE98|St. Louis Veterans Administration, Opiate Addiction Treatment Program|Bell Street Clinic|915 North Grand Ave.|St. Louis|MO|63106|(314) 289-6418|Certified|2003-09-12 00:00:00.0000000|-90.23154750|38.64258000|98.06000000
04B87EF4-1D59-466D-9259-58A380108B93|ATS of Cecil County, LLC|Cumberland Treatment Center|14701 National Hwy, Suite 5&6|LaVale|MD|21502|(301) 687-0940|Certified|2007-06-13 00:00:00.0000000|-78.85722277|39.63997932|91.71000000
04BC5214-D885-46FD-AB8B-1A10568B9E46|New Pointe Treatment Center, LLC||1031 Keith Dr|Perry|GA|31069|478-987-7912|Certified|2015-05-14 00:00:00.0000000|-83.70743305|32.46019200|100.00000000
0510EEEF-2933-427A-B9DC-CF769EB95F6D|Aegis Treatment Centers, LLC||1050 North Garey Ave.|Pomona|CA|91767|(909) 623-6391|Certified|2005-01-01 00:00:00.0000000|-117.75172050|34.06842000|100.00000000
05AAB0F4-7AF8-4D5D-A392-291C0F4F3E96|WCHS, Inc.|Tacoma Treatment Solutions|9500 Front Street, Suite 100|Lakewood|WA|98499|(253) 584-3996|Certified|2006-05-19 00:00:00.0000000|-122.47302218|47.17056418|100.00000000
0677CBED-34F0-45FB-AF61-4BCBD1999A39|Galax Treatment Center, Inc.|The Life Center of Galax|PO Box 27, 112 Painter Street|Galax|VA|24333|276-236-2994|Certified|2003-09-14 00:00:00.0000000|-80.92870140|36.65845314|99.43000000
06944895-C192-4F15-B102-89BFBB4FF85C|Western Pacific Rehabilitation (Stanton)||275 Victoria Street|Costa Mesa|CA|92627|(800) 223-3869|Certified|2004-01-25 00:00:00.0000000|-117.91073700|33.65260450|100.00000000
06AA67D3-C0ED-424F-B99F-7E3733938F84|Western Health Harbor City Clinic|Western Health Community Clinic|1647 West Anaheim St.|Harbor City|CA|90710|310-534-5590|Certified|2004-04-01 00:00:00.0000000|-118.28720875|33.77869341|99.03000000
070EB65C-0E52-42C4-9D08-039D3EDBFEAA|Tavarua Health Services||8207 Whittier Blvd.|Pico Rivera|CA|90660|(562) 695-0737|Certified|2004-05-01 00:00:00.0000000|-118.09620606|34.00671276|100.00000000
0719FF83-02D5-44FB-A79A-4E77AB2593A0|WCHS, Inc.|Temecula Valley Treatment Center|40700 California Oaks Rd., #201/202/203|Murrieta|CA|92562|(951) 894-5072|Certified|2007-07-25 00:00:00.0000000|-117.20460548|33.57040493|100.00000000
07394095-722D-4919-B4B6-8F76C48F221D|Cross Roads Recovery, Inc.|Cross Roads, Inc|5552 South Hampton Rd.|Dallas|TX|75232|(214) 339-3181|Certified|2004-10-01 00:00:00.0000000|-96.85690305|32.67932014|100.00000000
0741E38C-C89F-41B4-85CF-3021E312FC33|Daviess Treatment Services, LLC|Daviess Treatment Services, LLC|3032 Hwy 144|Owensboro|KY|42303|(270) 685-5030|Certified|2017-12-19 00:00:00.0000000|-87.07534725|37.78350951|100.00000000
07480120-6583-4302-8883-66A68FB54C4A|Maryland Behavioral Healthcare LLC||5900 York Road, Suite 201|Baltimore|MD|21212|(240) 893-6455|Provisional||-76.61032200|39.36294000|100.00000000
07538F62-1958-4FF9-AC4B-BACAC8AEA6D0|BHG Berea Treatment Center|BHG XXXV|1000 Ace Drive|Berea|KY|40403|(859) 756-5006|Certified|2019-05-08 00:00:00.0000000|-84.29015747|37.58371850|100.00000000
07767AB6-5B11-4B76-BEEB-7CAE3E38309A|699 NW Airoso Blvd|Just Believe Recovery Center of Port Saint Lucie, LLC|699 NW Airoso Blvd|Port Saint Lucie|FL|34983|772-252-1235|Certified|2016-08-24 00:00:00.0000000|-80.35385216|27.33402959|100.00000000
078EEDEA-0203-40F5-AFB9-A1DDCA53C45E|5034 Atlantic Ave OPCO, LLC|Recover Centers of America at Raritan Bay|901 Ernston Road|South Amboy|NJ|8879||Provisional||-74.28008246|40.46188490|100.00000000
07A0BECA-B9FA-4A85-A0CA-8A87C01BC837|Integrated Health Clinics - LLC||17882 Southeast McLoughlin Blvd.|MIlwaukie|OR|97267|(503) 353-9415|Certified|2003-11-01 00:00:00.0000000|-122.61419356|45.39296570|99.90000000
07B516A2-CC6C-4A1E-992E-61A91EB22E9D|Huntsville Metro Treatment Center P.C.||2227 Drake Ave., Suite 19|Huntsville|AL|35805|(256) 881-1311|Certified|2003-02-20 00:00:00.0000000|-86.60361442|34.69966340|99.55000000
07CA925E-DDFF-434C-BB76-16E9FFEEDDA9|Center for Behavioral Health-PA, LLC|Discovery House|1391 Washington Blvd.|Pittsburgh|PA|15206|(412) 661-9222|Certified|2006-06-20 00:00:00.0000000|-79.90898400|40.47001200|100.00000000
07CD2B60-C01C-4AA2-AA29-90BD31CE6A6A|Ocean Monmouth Care, LLC||150 Brick Blvd.|Brick|NJ|8723|(732) 458-2180|Certified|2010-12-23 00:00:00.0000000|-74.14356564|40.03088403|100.00000000
080A7E66-E999-4CB5-A529-AD3BCFCA52ED|Staten Island University Hospital- Detoxification Unit|Staten Island University Hospital|375 Seguine Avenue|Staten Island|NY|10309|(718) 226-2790|Certified|2006-06-15 00:00:00.0000000|-74.19683740|40.51653152|100.00000000
0888E1E2-3BBA-4638-93CE-1ED23F6932B9|Estrella Jail|Correctional Health Services|2939 W Durango|Phoenix|AZ|85009|(602) 526-1555|Certified|2015-04-28 00:00:00.0000000|-112.12426800|33.42835800|98.84000000
0895B208-3998-4CEB-BC52-B3A7BD26A9C3|Ohio Treatment Center, LLC|Mansfield Comprehensive Treatment Center|475 Lexington Avenue|Mansfield|OH|44907|419-419-5705|Certified|2020-05-04 00:00:00.0000000|-82.52625743|40.74188976|100.00000000
08BA0418-3427-49B1-81F4-161E985DA7CF|West Texas Counseling and Rehabilitation Program of Temple, Inc.|WTCR Temple, Inc.|2610 Exchange Pl.|Temple|TX|76504|(254) 742-0490|Certified|2003-06-25 00:00:00.0000000|-97.37567818|31.07731536|100.00000000
09033ABA-3778-4582-B059-8F1FF9EF5366|San Diego Health Alliance, Inc.|Fashion Valley Clinic|7545 Metropolitan Dr.|San Diego|CA|92108|(619) 718-9890|Certified|2006-06-22 00:00:00.0000000|-117.15856969|32.77687835|100.00000000
0925DA10-94A3-4AD1-A1FD-300CD7B35B04|New Brunswick Counseling Center, Inc.|Burlington Comprehensive Counseling, Inc.|75 Washington St.|Mt. Holly|NJ|8060|(609) 267-3610|Certified|2002-05-20 00:00:00.0000000|-74.79193959|39.99241623|100.00000000
09467380-AA5A-4873-B5BE-EC5929E2B8EB|Metwork Health Services, Inc.||2120 Liberty Rd.|Eldersburg|MD|21784|(410) 781-4158|Certified|2004-10-01 00:00:00.0000000|-76.92013048|39.39612136|100.00000000
094EAFF6-59E3-4E1B-9DFF-3EE78B17B482|Metro Treatment of Florida, LP|Tampa Metro Treatment Center|7207 & 7225 North Nebraska Ave.|Tampa|FL|33604|(813) 236-1182|Certified|2006-07-05 00:00:00.0000000|-82.45123301|28.01373549|98.89000000
096B5156-F015-46B4-9AAE-364F184497D0|West Texas Counseling and Rehabilitation Program of Irving, Inc.|WTCR Irving, Inc.|1116 West Pioneer Dr.|Irving|TX|75061|(972) 253-9370|Certified|2003-06-25 00:00:00.0000000|-96.95997547|32.82142746|100.00000000
09C4A53A-3129-4DBC-9177-3875DADC9BA1|Zepf Center||2005 Ashland Ave|Toledo|OH|43620|(419) 841-7701|Certified|2017-08-23 00:00:00.0000000|-83.55134250|41.66136900|100.00000000
09D611A5-2690-41C2-93EC-C5845BCB9202|Montefiore Medical Center - Wellness Center at Port Morris||804 East 138th Street|Bronx|NY|10454|(718) 665-7500|Certified|2004-01-01 00:00:00.0000000|-73.91023370|40.80373947|100.00000000
09F22258-8408-4E54-9A5C-556147B138C6|Lakeland Centres||3506 Lakeland Hills Blvd.|Lakeland|FL|33805|(863) 687-9900|Certified|2004-02-01 00:00:00.0000000|-81.95369850|28.08811800|100.00000000
0A07C284-3032-4D31-8BAF-FCA4B09A41A9|Center for Treatment and Recovery, LLC||82 Pond Street|Pawtucket|RI|2860|(401) 727-1287|Certified|2004-09-01 00:00:00.0000000|-71.37660150|41.87178900|100.00000000
0A0C60A0-FB1F-49B8-81D5-6F97133C1555|West Texas Counseling and Rehabilitation Program of Amarillo Inc.|WTCR Amarillo, Inc.|2300 Line Ave.|Amarillo|TX|79106-6636|(806) 373-0922|Certified|2003-06-25 00:00:00.0000000|-101.86315825|35.20821422|100.00000000
0A168AFE-2A87-4073-B0F1-FADE969A1DBA|Central Florida Substance Abuse Treatment Center||1800 West Colonial Drive|Orlando|FL|32804|(407) 843-0041|Certified|2003-08-21 00:00:00.0000000|-81.40388400|28.55259900|100.00000000
0A398998-9A0B-446B-B080-B4244A9025B3|Addiction Campus of Massachusetts|Swift River|151 South Street|Cummington|MA|1026|(888) 512-3115|Certified|2017-10-11 00:00:00.0000000|-72.88517216|42.48312038|100.00000000
0A5ED0FD-48A8-45D1-9AA9-D5D4558DB9D1|CompDrug||547 East 11th Ave.|Columbus|OH|43211|(614) 224-4506|Certified|2003-06-01 00:00:00.0000000|-82.99187100|39.99388500|100.00000000
0A78DD36-02B5-4A41-8F9C-108028941A16|BHG XXVIII, LLC|BHG West Plains Treatment Center|1639 Bruce Smith Pkwy|West Plains|MO|65775|(417) 257-1833|Certified|2016-03-04 00:00:00.0000000|-91.87543615|36.71251921|100.00000000
0A8A2CA9-1B33-4F81-8854-1E086C4B95B6|Crossroads Treatment Center of Winchester, PC||500 Pegasus Court, Suite 500|Winchester|VA|22602|(540) 313-4196|Certified|2017-09-27 00:00:00.0000000|-78.15007686|39.14498662|100.00000000
0AFC8ECB-2894-4CBE-8C3D-A37230D8415F|Cagnollatti and Henderson Inc|Life's Second Chance Treatment Center LLC North|1451 Empire Central Drive|Dallas|TX|75247|(469) 372-1277|Provisional||-96.86701346|32.82607302|100.00000000
0B3991AB-A496-423C-AC54-342663FB2924|MedMark Treatment Centers - Fairfield, Inc.||1143 Missouri Street|Fairfield|CA|94533-4302|(707) 435-9911|Certified|2003-09-01 00:00:00.0000000|-122.04828900|38.24793000|100.00000000
0B552BD7-D757-48B0-A285-3C6FC84056C9|Essex County Sheriff's Department Comprehensive Treatment Center||20 Manning Rd.|Middleton|MA|1949|(978) 750-1900|Provisional||-70.98647400|42.59770200|100.00000000
0B555A74-D4BA-41F6-8111-32A5AE005BEC|West End Clinic||5736 West Florissant Ave.|St. Louis|MO|63120|(314) 381-0560|Certified|2004-04-27 00:00:00.0000000|-90.24666300|38.70321300|100.00000000
0B8BAF4E-4424-4982-ACF5-958CEE3A81F1|Alliance Recovery Center, Inc.||1116 E. Ponce De Leon Ave.|Decatur|GA|30030|(404) 377-7669|Certified|2003-09-01 00:00:00.0000000|-84.27996896|33.77658220|100.00000000
0B9D35C8-AFDA-4187-931E-5980D3DBDD49|CODAC at Hampden Country House of Corrections and Stonybrook Stabilization Center|CODAC Inc|627 Randall Rd|Ludlow|MA|1056|(401) 275-5039|Provisional||-72.49948187|42.19760740|100.00000000
0BBA9D2B-4339-46BB-994E-46192A709C0A|Seabrook House, Inc.|Seabrook, Inc.|133 Polk Lane, P.O. Box 5055|Seabrook|NJ|8302|(856) 455-7575|Certified|2006-01-11 00:00:00.0000000|-75.21611322|39.52200551|96.18000000
0BCBB1F5-46DD-458E-BEB9-6DBCE1D7C1C2|ARS of Ephrata||11 S. State Street|Ephrata|PA|17522|(717) 740-6910|Provisional||-76.17826800|40.17877200|100.00000000
0BFEA366-C505-4D33-AA83-F7536EEE2519|Aegis Treatment Centers, LLC||501 W. Columbus Street|Bakersfield|CA|93301|(661) 328-0245|Certified|2015-11-04 00:00:00.0000000|-119.00683794|35.39729044|100.00000000
0C1C300E-0A56-4344-A229-F0EFE59C643D|Somerset Treatment Services Inc.|N/A|110 Rehill Ave.|Somerville|NJ|8876|(908) 722-1232|Certified|2003-12-01 00:00:00.0000000|-74.59594482|40.56789190|100.00000000
0C232AA8-C7E5-49DF-9B15-DB8E254F8C63|Metro Treatment of Florida, L.P.|Duval County Treatment Center|590 Ellis Road South|Jacksonville|FL|32254|(904) 800-2231|Certified|2016-05-20 00:00:00.0000000|-81.74360880|30.31597058|100.00000000
0C417C50-1208-47B7-81C9-FF70C2400584|The Center for Health Care Services|Opiate Addiction Treatment Services|601 N. Frio, Building #2|San Antonio|TX|78207|(210) 261-3027|Certified|2003-11-01 00:00:00.0000000|-98.50640850|29.42050500|98.85000000
0C9CFABA-2774-4EE9-B095-31C270D1EDFB|MedMark Treatment Centers Essex|Medmark Treatment Centers Essex|8909 Kelso Drive|Essex|MD|21221|(410) 486-2500|Certified|2009-05-20 00:00:00.0000000|-76.46869032|39.33836747|100.00000000
0CD2BBEA-1890-4312-973B-76333F5337FC|Cornell Scott Hill Health Center|Ansonia Counseling Services|121 Wakelee Avenue|Ansonia|CT|6401|(203) 503-3333|Certified|2020-07-15 00:00:00.0000000|-73.09111500|41.34013200|100.00000000
0CE4C72C-831C-4F3A-8FD1-29532D9A6E9A|Strong Memorial Hospital Methadone Maintenance Treatment Clinic Department of Psychiatry|Strong Recovery|2613 W. Henrietta Rd.|Rochester|NY|14623|(585) 275-3161|Certified|2003-10-23 00:00:00.0000000|-77.63063694|43.09876222|100.00000000
0D2C5AE9-4121-4528-8B03-0AAAB0C0D0DA|AMETHYST RECOVERY CENTER, LLC|SUBSTANCE ABUSE TREATMENT PROGRAM|2749 SW PORT SAINT LUCIE BLVD|PORT SAINT LUCIE|FL|34953|(772) 301-1678|Certified|2018-05-15 00:00:00.0000000|-80.37285300|27.26118000|100.00000000
0D641169-9177-4C74-B24A-584F0A47F4F0|RMTC - Raleigh Methadone Treatment Center||6118 St Giles St|Raleigh|NC|27612|(919) 781-5507|Certified|2003-12-01 00:00:00.0000000|-78.70352850|35.85486600|100.00000000
0DB2372A-5A15-4B98-ADB4-277183888C91|Richard J Caron Foundation Inc.|Caron Treatment Centers|243 North Galen Hall Rd|Wernersville|PA|19565|(610) 678-2332|Provisional||-76.09690132|40.30953917|100.00000000
0E32A196-A457-42B7-A971-20AD17925667|City of Portsmouth, Department of Behavioral Healthcare Services, Substance Abuse outpatient Treatment Services|Portsmouth Behavioral Healthcare Services|1811 King Street|Portsmouth|VA|23704|(757) 393-8896|Certified|2004-02-29 00:00:00.0000000|-76.32136449|36.83398425|100.00000000
0EA9183F-B2AD-4805-BCB3-F4E138741D0E|Bright View, LLC Fairfield||5108 Sandy Ln.|Fairfield|OH|45014|(513) 834-7063|Certified|2020-02-12 00:00:00.0000000|-84.55719794|39.33974328|100.00000000
0EBFBA40-6699-40F1-A230-99F4BF952319|Therapeutic Health Services, Seneca Branch||1305 Seneca St.|Seattle|WA|98101|(206) 726-4100|Certified|2003-11-01 00:00:00.0000000|-122.32400009|47.61174653|100.00000000
0ECE0B4D-9533-447C-9581-E30B7D9AF03D|Medmark Treatment Centers Baltimore Downtown 101|Medmark Treatment Centers Baltimore Downtown 101|821 North Eutaw St., Suite 101|Baltimore|MD|21201|(410) 225-9185|Certified|2004-06-12 00:00:00.0000000|-76.62147500|39.29886992|100.00000000
0EE6B73C-E644-45C5-8898-65DE3760BD5F|BAART Behavioral Health Services|Cartwright Clinic|3103 East Cartwright Ave.|Fresno|CA|93725|(559) 498-7100|Certified|2003-09-01 00:00:00.0000000|-119.73447786|36.67616200|100.00000000
0EF44EAB-BC48-49EE-A75F-9D5829665121|Northern Michigan Substance Abuse Services, Inc.|NMSAS Recovery Center|2136 West M-32|Gaylord|MI|49735|(989) 732-1791|Certified|2015-07-08 00:00:00.0000000|-84.71855169|45.02755948|100.00000000
0EF4505A-A7D7-484C-A323-DFDE2434E3AD|Symetria Health of Texas, LLC|Symetria Recovery of College Station|1651 Rock Prairie Rd|College Station|TX|77080|(844) 277-7436|Certified|2019-01-14 00:00:00.0000000|-96.28974084|30.58283190|98.68000000
0F02FE38-ED83-4CCA-8E1E-B4144E587FF6|Mount Sinai Beth Israel O.T.P. Ave. A Clinic|Opioid Treatment Program|26 Ave. A|New York|NY|10009|(212) 420-2079|Certified|2003-09-17 00:00:00.0000000|-73.98554765|40.72324307|100.00000000
0F3D8F3B-0CDE-4A45-8342-56BFAA42F171|BrightView, LLC|Brightview|201 N. Yellow Springs St.|Springfield|OH|45504|(513) 834-7063|Provisional||-83.81910447|39.92804797|100.00000000
0FA9F264-C25C-4BBF-AC5C-52202C9A4D45|Greenville Recovery Center|Sellati & Co., Inc|150 E. Arlington Blvd.|Greenville|NC|27858|252-353-2555|Certified|2007-10-29 00:00:00.0000000|-77.37640564|35.58984031|100.00000000
0FAEF596-12D3-473D-99DD-BD7919387C77|Oklahoma Treatment Services, LLC|Rightway Medical of Bartlesville|610 W. Hensley Blvd|Bartlesville|OK|74003|918-337-6007|Certified|2012-01-03 00:00:00.0000000|-95.98402897|36.75337052|100.00000000
0FCBCC37-87DF-44B0-9AD9-17043E59F0EE|WCHS, Inc.|Kent Treatment Solutions|21851 84th Ave S, #101|Kent|WA|98032|(425) 687-7082|Certified|2003-12-01 00:00:00.0000000|-122.22803649|47.40517800|100.00000000
0FE75353-E5EA-4AF5-9CBF-AF33DE005B10|Fort Help Mission Inc.||1101 Capp Street|San Francisco|CA|94110|(415) 821-1427|Certified|2011-07-14 00:00:00.0000000|-122.41702404|37.74887360|100.00000000
100E1895-984F-4AB9-B34E-15A714B19F44|Discovery House UC, Inc.|Discovery House|714 South State St.|Orem|UT|84058|(801) 426-6565|Certified|2006-10-17 00:00:00.0000000|-111.69108900|40.28354100|100.00000000
101A9762-B44E-47F2-A387-89C8EFCB4B81|Bi-Valley Medical Clinic and BAART Behavioral Health Services|BAART Programs Norwood|310 Harris Ave., Stuites A, E, F and G|Sacramento|CA|95838|(916) 649-6793|Certified|2003-11-22 00:00:00.0000000|-121.45857300|38.63813400|96.74000000
102B13F6-FD63-4C51-9640-2C791986EE95|PDSSC - Chicago, Inc.||2260 N. Elston Ave.|Chicago|IL|60614|(773) 772-2450|Certified|2007-08-01 00:00:00.0000000|-87.67412081|41.92272442|100.00000000
103CEF06-8936-4100-865B-39C82B5F93B1|Southern Oklahoma Treatment Services, Ardmore|Transitions|905 Holiday Dr.|Ardmore|OK|73401|(580) 226-5003|Certified|2007-03-13 00:00:00.0000000|-97.16538749|34.18511932|100.00000000
104CB691-9376-45C2-A4E8-21DB71EA07E7|Connections Community Support Programs, Inc. - Newark||3304 Polly Drummond Office Plaza|Newark|DE|19711|(833) 886-2277|Certified|2013-03-25 00:00:00.0000000|-75.72218170|39.72978770|85.00000000
108C4A91-2D15-4CE5-ACA5-75DEC0D6F041|Greenville Metro Treatment Center||602 Airport Rd.|Greenville|SC|29609|(864) 234-7952|Certified|2004-07-29 00:00:00.0000000|-82.34433000|34.84441053|98.28000000
10D5F95A-E2E8-455B-B70B-E96FBCF0ADFF|Recovery Services of New Mexico, LLC|Recovery Services of New Mexico Roswell|1107 South Atkinson|Roswell|NM|88203|(575) 578-4825|Certified|2015-10-07 00:00:00.0000000|-104.50559909|33.38038441|98.84000000
10D72CD0-DBC6-4C25-BEB0-FD0D3DFFEE23|InterCommunity, Inc.||500 Blue Hills Ave.|Hartford|CT|6112|(860) 714-3700|Certified|2003-09-28 00:00:00.0000000|-72.69490330|41.80017942|100.00000000
10F62286-75C7-4CD2-8DA0-56FC8B3B5D26|Community Medical Services- Mesa on Main||2940 East Main Street|Mesa|AZ|85213|(480) 977-1500|Certified||-111.76736850|33.41555153|100.00000000
11020BAD-4D6A-42B8-9E26-0FF93C832525|Orchard Hill Treatment Services|APT Foundation, Inc|352 State Street|North Haven|CT|6473|(203) 781-4600|Certified|2015-05-27 00:00:00.0000000|-72.88669576|41.36893303|100.00000000
110478B7-7532-49E0-B0D7-58E3A2D62B9B|BrightView, LLC OTP Colerain||6527 Colerain Ave.|Cincinnati|OH|45239|(833) 510-4357|Certified|2019-05-30 00:00:00.0000000|-84.58340638|39.20735896|100.00000000
11130B6D-1F6A-46FE-8B39-BBB01D33AFB8|Operation PAR Medication Assisted Patient Services||7720 Washington St|Port Richey|FL|34668|(727) 816-1200|Certified|2005-05-09 00:00:00.0000000|-82.71965929|28.26916264|100.00000000
118F97BF-5C8E-4003-9F19-4316A83BBB69|Valhalla Place Brainerd, LLC||2215 South Sixth Street|Brainerd|MN|56401|(218) 454-1010|Certified|2013-02-11 00:00:00.0000000|-94.20067973|46.33129800|100.00000000
11929687-ED52-46CA-A3A6-DA7DC76DFEDB|Lumberton Treatment Center||2200 Clybourn Church Road|Lumberton|NC|28358|(910) 739-9160|Certified|2012-08-03 00:00:00.0000000|-79.02759066|34.65932094|98.68000000
119A5AE8-E3F1-4237-B5AA-7F83F954C82B|New Era Rehabilitation Center, Inc.||311 East Street|New Haven|CT|6511|(203) 562-2101|Certified|2010-05-27 00:00:00.0000000|-72.90997131|41.30714926|100.00000000
11AB2E5F-4055-4EA6-AC33-FA1724F37085|Western Pacific Med-Corp||955 East Thompson Blvd.|Ventura|CA|93002|(805) 641-9100|Certified|2004-01-25 00:00:00.0000000|-119.28616740|34.27831553|99.52000000
11ACDB6A-5929-4F42-B529-D0DDC4FF7E9C|Pinnacle Treatment Centers, NJ-III, LLC|Hamilton Treatment Services|3444 Quakerbridge RD|Hamilton|NJ|8619|(609) 838-9067|Certified|2020-04-04 00:00:00.0000000|-74.68233751|40.25298361|99.90000000
11C0C7FB-372F-4FFD-AF8D-B27BE1B4E54C|Metro Treatment of Oregon, LP|Metro Treatment of Oregon, LP|16420 Southeast Division Street|Portland|OR|97236|(503) 762-3130|Certified|2006-02-21 00:00:00.0000000|-122.49447300|45.50453349|100.00000000
11EB8854-1D53-4E38-8E41-81DA5EB461ED|Rocky Mount Treatment Center, LLC||104 Zebulon Court|Rocky Mount|NC|27804|(252) 972-4357|Certified|2009-09-01 00:00:00.0000000|-77.83793962|35.96500603|100.00000000
12003870-08B8-40E4-A86F-8E8B93000497|New Mexico Treatment Services, LLC|Una Ala Clinic|1227 N Railroad Ave|Espanola|NM|87532|(505) 747-8187|Certified|2003-11-01 00:00:00.0000000|-106.08023754|36.00773100|100.00000000
121CE5E5-2B31-4EC4-B3D2-21317DFE1C1B|West Texas Counseling And Rehabilitation of Dallas|WTCR Dallas, Inc.|1808 Market Center Blvd|Dallas|TX|75207|(214) 630-7146|Certified|2003-06-25 00:00:00.0000000|-96.82309543|32.79474383|100.00000000
1226D832-371D-4315-B730-A249ED03FEEF|Brattleboro Retreat Buprenorphine Clinic||1 Anna Marsh Lane|Brattleboro|VT|5302|(802) 257-7785|Certified|2015-02-19 00:00:00.0000000|-72.56366429|42.85871878|99.51000000
122B8BE2-84CA-4D90-A990-C59488CE78AE|BHG XXXVI|BHG Asheville Treatment Center|18 Wedgefield Dr.|Asheville|NC|28806|(828) 252-8748|Certified|2005-04-11 00:00:00.0000000|-82.60657625|35.53268386|100.00000000
122BCAC1-5B37-4EF3-AD3F-D0E2BE972642|SSTAR's Lifeline|Lifeline|1010 South Main Street|Fall River|MA|2721|(508) 235-5010|Certified|2006-03-31 00:00:00.0000000|-71.16515100|41.69078100|99.52000000
126D5B62-2CEA-4C24-9089-A1FCA3EC3E01|Grace Medical Center- New Hope Treatment Center|Grace Medical Center- New Hope|2401 West Baltimore St.|Baltimore|MD|21223|(410) 945-7706|Certified|2003-11-22 00:00:00.0000000|-76.65429373|39.28781377|100.00000000
12BE224C-1DCF-4545-8D75-452BF5ADEAB6|Prescott Valley ORS|Southwest Behavioral Health Services, Inc.|7600 E. Florentine Ste. 101|Prescott Vallley|AZ|86314|(928) 775-7088|Certified|2008-08-18 00:00:00.0000000|-112.33262889|34.58838746|97.75000000
12DE2F09-0651-4970-83E3-9D12C842D17D|Family Guidance Center, Inc.||751 Aurora Ave.|Aurora|IL|60505|(630) 801-0017|Certified|2006-03-15 00:00:00.0000000|-88.30590573|41.77277477|100.00000000
130835FD-80A3-41FE-9BFE-C42C8E8A2563|S.T.A.R. Center, Inc.||13575 Lesure St.|Detroit|MI|48227|(313) 493-4410|Certified|2004-05-15 00:00:00.0000000|-83.18002697|42.38639382|100.00000000
1316C2B2-4213-4515-A3B5-2DFFD21313DD|Evergreen Treatment Services Unit 2|Evergreen Treatment Services|1700 Airport Way South|Seattle|WA|98134|(206) 223-3644|Certified|2005-12-07 00:00:00.0000000|-122.32137568|47.58774468|100.00000000
1326B487-746A-42A0-BB4E-849B07A93036|Advanced Treatment Systems, LLC|Lebanon Treatment Center|3030 Chestnut St.|Lebanon|PA|17046|(717) 273-8000|Certified|2007-06-14 00:00:00.0000000|-76.45765239|40.33849134|99.51000000
132B25F6-6F1D-4506-98FE-437CFB7F054A|Opiate Treatment Program, Portland VA Medical Center||3710 SW US Veteran's Hospital Road|Portland|OR|97239|(503) 220-8262|Certified|2003-09-26 00:00:00.0000000|-122.68331024|45.49690116|100.00000000
136F4F49-4470-402B-8622-1C15D11BF2A4|Brick City Medical|Suburban Health Clinic|43 Progress Street|Union|NJ|7083|(908) 258-8765|Provisional||-74.30227588|40.69128986|100.00000000
1386A7C3-C53F-4108-990C-1255A835AE8A|Limestone Health Bloomington||2100 Liberty Drive|Bloomington|IN|47403|(812) 727-6700|Certified|2019-06-12 00:00:00.0000000|-86.57809674|39.14599502|99.55000000
13A6FCFF-ECCC-4A4B-8F45-521E6A2E97AF|BHG XXIX, LLC|BHG Poplar Bluff Treatment Center|1369 North Westwood Blv.|Poplar Bluff|MO|63901|(573) 772-7937|Certified|2016-03-04 00:00:00.0000000|-90.41665015|36.76969035|100.00000000
13C339FC-BA74-4CC5-9EF5-E65FB1FDEB51|R.I.S.A.T., Inc.|Discovery House|1625 Diamond Hill Rd., Camelot Bldg.|Woonsocket|RI|2895|(401) 762-1511|Certified|2006-02-09 00:00:00.0000000|-71.47655364|42.01559813|97.50000000
14083A8B-CB62-4F51-8D91-69E513C70D36|CRC Health Treatment Clinics, LLC|Shelbyville Comprehensive Treatment Center|213 Midland Blvd.|Shelbyville|KY|40065|502-647-0154|Certified|2019-02-14 00:00:00.0000000|-85.25226865|38.21519870|100.00000000
141A19C1-B22B-42AB-A400-85B58765F2E9|Inspired Hope Group LLC||1228 W. Scyene Road #230|Mesquite|TX|75149|(972) 288-1800|Certified|2015-01-05 00:00:00.0000000|-96.61500392|32.76913450|100.00000000
14545511-7ACF-4952-BEC4-64EA4813B6DC|Crossroads Treatment Center of Asheville, PC||6 Roberts Road, Suite 103|Asheville|NC|28803|(828) 505-3086|Certified|2010-02-23 00:00:00.0000000|-82.51919198|35.55455384|100.00000000
146BC06E-0416-493F-AA7A-4D503784D8F6|Lower Eastside Service Center, Inc., M.M.T.P. III||62 East Broadway|New York|NY|10002|(212) 343-3591|Certified|2004-08-01 00:00:00.0000000|-73.99512545|40.71366621|100.00000000
146FB673-C741-438B-B33A-836A79175A40|Morehead City Treatment Center LLC||403 North 35th Street|Morehead City|NC|28557|(252) 773-0306|Certified|2019-07-24 00:00:00.0000000|-76.75478100|34.72947900|100.00000000
1480F314-9012-4687-8B79-A9C07ECFAF49|Pinnacle Treatment Centers OH-II, LLC|Chillicothe Treatment Services|606 Central Center|Chillicothe|OH|45601|(740) 771-3553|Certified|2019-01-09 00:00:00.0000000|-83.00137612|39.33718824|100.00000000
14941F8B-0CBA-4474-BF9D-B868F65BAE18|Metro Treatment of Florida, LP|Leon County Treatment Center|3976 Woodville Hwy.|Tallahassee|FL|32305|(850) 878-7776|Certified|2003-06-01 00:00:00.0000000|-84.27486600|30.38466600|100.00000000
14FA5F9F-993A-4D1D-886E-1AD1F409F93D|Evergreen Treatment Services Unit 1|Evergreen Treatment Services|1700 Airport Way South|Seattle|WA|98134|(206) 223-3644|Certified|2005-12-07 00:00:00.0000000|-122.32137568|47.58774468|100.00000000
1507076D-18B7-49C8-9B2F-59E21E54D414|Habit Opco, LLC|Habit OPCO - Yarmouth|31A Workshop Road|Yarmouth|MA|02664-1814|(508) 398-5155|Certified|2003-09-01 00:00:00.0000000|-70.21162416|41.68626527|100.00000000
1555948D-489C-43C4-9682-D7B06E2C59CD|University Hospital - Stony Brook Eastern Long Island Hospital||201 Manor Place|Greenport|NY|11944|(631) 477-5394|Certified|2003-06-01 00:00:00.0000000|-72.36126261|41.11103061|100.00000000
155A17D8-FAEF-43D6-8898-7C245F37A40F|Habit Opco, LLC|Habit OPCO - Fall River|22 Front St.|Fall River|MA|02721-4302|(508) 676-1307|Certified|2003-09-01 00:00:00.0000000|-71.14621339|41.69814586|100.00000000
15706F4E-7FEB-400B-9B0F-C8B184BD6259|Aegis Treatment Centers, LLC||1235 McHenry Avenue, Suites A & B|Modesto|CA|95350|(209) 527-4597|Certified|2004-05-01 00:00:00.0000000|-120.99391719|37.66148762|97.95000000
15B51003-C275-4C11-A795-EEEEE2CCF904|Phoenix Health Center, LLC|Phoenix Health Center|217 East Antietam Street|Hagerstown|MD|21740|(240) 420-0000|Certified|2012-12-10 00:00:00.0000000|-77.71672095|39.63849423|100.00000000
15DEAF03-349B-497A-89C0-B101DFF81019|Specialized Treatment Services, Inc. / St. Paul|STS, Inc|311 Spruce Street|St. Paul|MN|55101|(651)888-6800|Certified|2014-12-18 00:00:00.0000000|-93.08930791|44.95537154|100.00000000
15E4FD2E-A81A-4945-BF45-5A7F880938C9|CODAC Pawtucket||600 Pawtucket Ave|Pawtucket|RI|2860|(401) 808-6278|Provisional||-71.39927726|41.85715272|100.00000000
160A394C-D225-409E-AADF-9557C8B317AC|The New York Hospital Adult Methadone Maintenance Program|Vincent P. Dole Treatment and Research Insititute|Helmsley Tower|New York|NY|10021|(212) 746-1255|Certified|2006-12-07 00:00:00.0000000|-73.96729500|40.77211500|85.00000000
16249C2A-FECC-4F5F-A537-8252A173830C|New Perspectives of White Deer Run||3030 Chestnut Street|Lebanon|PA|17042|(717) 270-3900|Certified||-76.45765239|40.33849134|100.00000000
162C5978-1683-413D-ABA3-995F2E77159A|Liberation Programs Methadone Clinic||399 Mill Hill Avenue|Bridgeport|CT|6610|(203) 384-9301|Certified|2004-11-01 00:00:00.0000000|-73.16521977|41.19194969|100.00000000
163F8A5D-3A6B-4E7C-BDE7-9A637ACC0FE3|Eldorado Texas Community Service Center||1213 Durham Dr.|Houston|TX|77007|(713) 636-9138|Certified|2011-07-07 00:00:00.0000000|-95.41064434|29.77247876|100.00000000
167DB6F0-3917-4E19-A0C2-4A518EF81912|Gundersen Lutheran Medical Center, Inc||1910 South Ave.|La Crosse|WI|54601|(608) 775-2287|Certified|2006-02-07 00:00:00.0000000|-91.24655904|43.79493218|100.00000000
16834AE8-2DFE-4710-8113-B83B5A1DB1F3|Lakeview Center Inc.|Shalimar Opiate Treatment Program|One 11th Avenue|Shalimar|FL|32579|(850) 609-1040|Certified|2004-02-01 00:00:00.0000000|-86.57095691|30.44703147|96.25000000
16BF0FDF-3E84-46B8-B6F9-43E290F0D810|Smith-Berch, Inc.|Frederick Institute|5716-C Industry Lane|Frederick|MD|21704-5185|(301) 663-4130|Certified|2004-01-01 00:00:00.0000000|-77.41548000|39.39148800|99.75000000
16C6B923-361C-4694-87F6-5FE1F96EA434|County of Suffolk||Suffolk County Department of Health Services|Hauppauge|NY|11788-5229|(631) 853-7373|Certified|2003-11-07 00:00:00.0000000|-73.26629000|40.81371600|86.00000000
16EA1A27-23CE-4365-8C5B-B682819C1743|Ithaca Alpha House Center Inc.|Cayuga Addiction Recovery Services|334 W. State Street|Ithaca|NY|14850|(607) 273-5500|Provisional||-76.50369900|42.43960800|100.00000000
1706F542-8467-473A-A796-64F4E78BFFEE|The Hartford Dispensary - Doctor's Clinic|345 Main Street, Hartford, CT 06106|345 Main St.|Hartford|CT|6106|(860) 525-2181|Certified|2006-03-28 00:00:00.0000000|-72.67512406|41.76007389|100.00000000
1720BC1D-1094-462A-BC1F-2F5F09C1C76E|Metro Treatment of Mississippi, LP|DeSoto Treatment Center|8900 Delta Bluff Cove|Walls|MS|38680|(662) 510-4660|Certified|2021-01-31 00:00:00.0000000|-90.14638396|34.96353017|100.00000000
172F834F-3A6C-4122-978B-751BA9BFF429|Community Medical Services- Minot||300 30th Ave NW, Suite D|Minot|ND|58703|(701) 858-1801|Certified|2017-07-10 00:00:00.0000000|-101.29883922|48.26894548|100.00000000
1744E3EB-BE27-4D03-B478-589432E8A6FD|Spectrum Health Systems, Inc.||68 Franklin Street|Framingham|MA|1702|(508) 875-5801|Certified|2006-01-23 00:00:00.0000000|-71.41840548|42.27920349|100.00000000
175E7652-BDCD-4ED7-8F46-A31210169AA4|ROCK HILL TREATMENT SPECIALISTS|Rock Hill Treatment Specialists|1274 EAST MAIN STREET|ROCK HILL|SC|29730|(803) 526-7666|Certified|2018-10-31 00:00:00.0000000|-81.00238741|34.91589184|100.00000000
1789512C-1193-4EF0-BBE5-F0FF3D7F928E|Addiction Treatment Center of New England, Inc.||77F Warren St.|Brighton|MA|2135|(617) 254-1271|Certified|2004-10-01 00:00:00.0000000|-71.14260399|42.34941091|100.00000000
178F73C3-8634-47A9-97D4-F9DEEFB04023|Pennsylvania Associates, LLC|Mount Pocono Medical|1151 Pocono Blvd Unit #3|Mt Pocono|PA|18344-1033|570-839-7246|Certified|2011-04-07 00:00:00.0000000|-75.36477936|41.13534884|100.00000000
17B213CF-E060-4AAA-A535-B5889A795ACB|Community Human Services Off Main Clinic||1083 South Main St.|Salinas|CA|93901|(831) 424-4828|Certified|2003-12-14 00:00:00.0000000|-121.65705900|36.66026700|100.00000000
17C10896-C6D9-4187-8EA6-A20FDF17879D|Discovery House-TV, Inc.|Discovery House|5983 South Redwood Road|Taylorsville|UT|84123|(801) 293-9999|Certified|2007-10-16 00:00:00.0000000|-111.93809850|40.64242500|100.00000000
17D77858-76B9-4A2D-AF55-BD94D68BD32C|Treatment Center of Kennesaw||1735 Tuscan Heights Blvd. Suite 116|Kennesaw|GA|30152|(770) 426-7810|Certified|2011-08-04 00:00:00.0000000|-84.59936547|34.00048569|100.00000000
17F7C9FB-2C02-4573-8DE4-048A150BBF96|Center for Human Services||2 Research Dr.|Stratford|CT|6615|(203) 386-8802|Certified|2004-09-01 00:00:00.0000000|-73.15530341|41.17258590|100.00000000
1837D3A7-9ACA-4D9D-AD69-73BD61188EF1|BAART Behavioral Health Services|Van Ness Clinic|539 North Van Ness Ave.|Fresno|CA|93728|(559) 266-9581|Certified|2006-09-08 00:00:00.0000000|-119.79892848|36.75119400|100.00000000
18ABF197-473F-4042-86E5-C01ED3E2364F|Meridian Healthcare||320 High Street, N.E.|Warren|OH|44481|330-259-8094|Certified|2017-11-15 00:00:00.0000000|-80.81496693|41.23754493|100.00000000
18B26A6F-B374-42D2-851B-860EF6D2484F|Drs. Miram & Sheldon Adelson Clinic for Drug Abuse Tx & Research, Inc.||3661 South Maryland Pkwy., #64|Las Vegas|NV|89109|(702) 735-7900|Certified|2004-01-01 00:00:00.0000000|-115.13828700|36.12275100|99.52000000
18D169B2-89B8-43C7-A7AA-FC03B23A930C|Comprehensive Psychiatric Center (South)||9735 East Fern St.|Miami|FL|33157|(305) 238-5121|Certified|2004-02-29 00:00:00.0000000|-80.34942694|25.60557271|100.00000000
18E37727-293B-4368-B8AC-BF21C8EFE941|Habit Opco, LLC|Habit OPCO - Watsontown|759 Susquehanna Trail|Watsontown|PA|17777|(570) 538-1240|Certified|2013-05-01 00:00:00.0000000|-76.84279024|41.06028967|100.00000000
18F3995F-EFE6-4EF7-A190-0806C079CF24|Sunrise Treatment Center - Milford|Sunrise Treatment Center|25 Whitney Dr. ste 122|Milford|OH|45150|(513) 941-4999|Certified|2020-07-09 00:00:00.0000000|-84.25794576|39.15675176|100.00000000
19003BB9-C856-48E0-BB31-93DDC50B2002|Mount Sinai Beth Israel O.T.P. Clinic 3G|Opioid Treatment Program|429 Second Ave.,Third Floor|New York|NY|10010|(212) 726-6823|Certified|2003-09-24 00:00:00.0000000|-73.98023505|40.73888518|98.61000000
1958BFF0-7DC4-4937-BFF4-8C7CA3EF6CDB|Covert Action LLC|Covert Action|1223 Center Street|Des Moines|IA|50309|(515) 218-6125|Certified|2019-01-11 00:00:00.0000000|-93.63280813|41.59175408|100.00000000
197DCEE6-3302-49E4-9A7C-BD8F806F61E5|ARS Virginia|ARS Winchester|210 Front Royal Pike|Winchester|VA|22601|(540) 545-8794|Certified|2016-04-15 00:00:00.0000000|-78.15791813|39.15842014|99.51000000
199F67DF-ED42-433E-BBF8-C7019B720B10|MedMark Treatment Centers of Georgia, Inc.|MedMark Treatment Centers Chatsworth|1289 GI Maddox Pkwy (US Hwy 76)|Chatsworth|GA|30705|(706) 971-3366|Certified|2017-02-22 00:00:00.0000000|-84.79638047|34.78279447|98.25000000
19AD3C6A-DF35-4CEC-9EBE-B31846C0737F|DeCoach Team LLC|DeCoach Rehabilitation Centre|6570 Sosna Drive|Fairfield|OH|45014|(513) 942-4673|Provisional||-84.49749367|39.32079009|100.00000000
19C1A9D7-220F-40E3-BD2E-768216BADDDF|Addiction Services And Pharmacotherapy - West Allis||11390 West Theodore Trecker Way|West Allis|WI|53412|(414) 928-1401|Provisional||-88.05447291|43.02368467|99.00000000
19EC00A4-8CC7-41FF-955A-16249BE95D07|Remedies Renewing Lives, Inc.||220 Easton Parkway|Rockford|IL|61108|(815) 962-0871|Certified|2006-04-03 00:00:00.0000000|-89.01868950|42.26255100|100.00000000
1A2BF6AA-5B82-4F75-A241-6E6F00431DCA|The Bobby Buonauro Clinic||1029 West Howard St., Suite 303|Evanston|IL|60202|(847) 869-1808|Certified|2006-01-12 00:00:00.0000000|-87.68681943|42.01958966|100.00000000
1A881966-080D-422A-A3A7-046D75E566F5|Harbor Springs Counseling Services||1790 Mulkey Road Suite 3A|Austell|GA|30106|(770) 693-9388|Certified|2020-04-13 00:00:00.0000000|-84.60517050|33.85984500|100.00000000
1AC008DA-B5BC-489F-AD09-39718337509B|S.E.S. Operating Corporation d/b/a, Harlem East Life Plan||2367-69 Second Ave.|New York|NY|10035|(212) 876-2300|Certified|2006-04-17 00:00:00.0000000|-73.98952200|40.72635900|96.90000000
1B3CF180-2D20-4A3F-B3BE-785A320DB324|Galax Treatment Center, LLC|New River Treatment Center|140 Larkspur Lane|Galax|VA|24333|(276) 236-6341|Certified|2009-04-08 00:00:00.0000000|-80.90850600|36.67573566|100.00000000
1B75FDEB-9BF4-49E3-8CC9-088DC88B9BD9|Los Angeles Ambulatory Care Clinic (LAACC) VA Opioid Treatment Program||351 East Temple St., Mail Code 11-C|Los Angeles|CA|90012-3328|(213) 253-2677|Certified|2003-10-26 00:00:00.0000000|-118.23847927|34.05149131|97.66000000
1B8B270A-4BAF-4007-9E25-7EEFB0765729|Northwest Integrated Health||9720 South Tacoma Way|Lakewood|WA|98499|(253) 365-0322|Certified|2018-04-11 00:00:00.0000000|-122.48535150|47.16859500|100.00000000
1BD324CB-0D0D-433F-9AB1-EEBA6EC8BCE7|AMAZING GRACE CENTER INC|AMAZING GRACE CENTER|802 CLARE AVE|PORTSMOUTH|OH|45662|(740) 876-8449|Certified|2020-04-03 00:00:00.0000000|-82.99323079|38.75520553|100.00000000
1C43BF90-223E-4C9B-90BF-2C119AE21ADD|Crossroads Treatment Center of Denver, PC||1801 West 13th Avenue|Denver|CO|80204|(303) 893-4291|Certified|2017-12-13 00:00:00.0000000|-105.01067700|39.73709700|100.00000000
1C48A766-D0FE-4F5A-9400-B32BE019D486|Discovery House CU, LLC|Discovery House|214 Airport Road|Clearfield|PA|16830|(814) 768-7575|Certified|2004-01-01 00:00:00.0000000|-78.39731288|41.04614325|100.00000000
1C7A4447-5EF0-4778-A373-2D650E350797|The Hartford Dispensary - Norwich Clinic|Norwich Clinic|772 West Thames St.|Norwich|CT|6360|(860) 886-0446|Certified|2006-03-28 00:00:00.0000000|-72.09832039|41.49684789|100.00000000
1CC71628-AA01-4AE7-979A-65137A344D91|Dundalk Health Services, Inc.|Baltimore Health Solutions, Inc.|6706 Holabird Avenue|Baltimore|MD|21222|410-650-2413|Certified|2018-04-04 00:00:00.0000000|-76.53026700|39.27274200|100.00000000
1CD6E160-38F9-48BE-BD45-A9ADCA2E5D93|Hartford Dispensary - Torrington Clinic|Root Center for Advanced Recovery|140 Commercial Boulevard|Torrington|CT|6790|(860) 482-8796|Certified|2015-10-01 00:00:00.0000000|-73.10557251|41.82458063|100.00000000
1CF66B77-F82A-46C4-A2C3-00D9992AA4B7|The Hartford Dispensary New London Clinic|931 Bank Street, New London, CT 06320|931 Bank St.|New London|CT|6320|(860) 447-2233|Certified|2006-03-28 00:00:00.0000000|-72.11093025|41.34610138|100.00000000
1CFED5DD-BC01-4816-9E22-3AE38FEB0B68|Milwaukee Health Services System, LLC|Appleton Comprehensive Treatment Center|3301 N. Ballard Road|Appleton|WI|54911|(920) 733-4443|Certified|2003-09-01 00:00:00.0000000|-88.37533800|44.29302300|100.00000000
1D3F7B94-DA41-4EA2-80BB-1E498590FE0F|Adult Rehabilitation Services, Inc.||6624 Hornwood|Houston|TX|77074|(713) 541-4422|Certified|2004-06-01 00:00:00.0000000|-95.49990450|29.70970200|98.82000000
1D715171-3B6C-48B4-8A7A-A7A01B22CB6F|Parkside Dependency Treatment Program - The Brooklyn Hospital Center Caledonian Campus||121 DeKalb Ave.|Brooklyn|NY|11201|(718) 250-8900|Certified|2003-06-14 00:00:00.0000000|-73.97747128|40.68985179|100.00000000
1D8E3057-0B9F-48D3-BB29-291E3072E085|Genesis Treatment Services|Genesis Treatment Services|1160 W. Patrick St|Frederick|MD|21703|(240) 831-4237|Certified|2020-01-16 00:00:00.0000000|-77.44988330|39.41807266|100.00000000
1E9B0ADE-AC92-4605-83B4-9F707D46712E|Richmond Treatment Center, LLC|Richmond Treatment Center|4265 South A. St.|Richmond|IN|47374|(765) 962-8843|Certified|2005-02-01 00:00:00.0000000|-84.84345556|39.82684336|100.00000000
1EC5572B-5BC8-4EF5-903B-9F65BA69419B|Metro Treatment of Florida, LP|Pensacola Metro Treatment Center|2420 South Highway 29|Pensacola|FL|32533|(850) 968-3565|Certified|2003-12-01 00:00:00.0000000|-87.28748100|30.56499900|98.13000000
1EC65B6A-512E-4DFF-8FB6-06080780EAEE|Mid-Hudson Valley Division of Westchester Medical Center|The Kyle Goldberg Turning Point|241 North Road|Poughkeepsie|NY|12601|(845) 431-8767|Certified|2005-05-09 00:00:00.0000000|-73.92819150|41.71749300|100.00000000
1ED188EF-3680-47CA-B14E-4B9887AB0D0E|ESPER TREATMENT CENTER||844 E COLUMBUS AVE|CORRY|PA|16407|(814) 459-0817|Provisional||-79.61233050|41.93238053|100.00000000
1EE5C999-EC62-4A23-BD35-1A4E4E19E86A|Oklahoma Treatment Services, LLC|Tulsa Rightway Medical|3445 S Sheridan Road E|Tulsa|OK|74145|(918) 610-3366|Certified|2003-09-01 00:00:00.0000000|-95.90031450|36.11244600|93.94000000
1F05D7B0-A37F-4F95-BECD-EE2B986ABA66|Rio Rancho Health Services||1558 Stephanie Rd. SE|Rio Rancho|NM|87124|(505) 896-5517|Certified|2018-06-11 00:00:00.0000000|-106.65226931|35.23249772|100.00000000
1F63C0C2-18A3-4899-983D-E919D6CF8CF3|Indianapolis Treatment Center, LLC|Indianapolis Treatment Center|2626 East 46th St., Suite J|Indianapolis|IN|46205|(317) 475-9066|Certified|2005-02-01 00:00:00.0000000|-86.11906500|39.84077700|100.00000000
1F655345-47A8-48E5-908F-B872A9724EAB|Premier Care of Wisconsin, LLC|Community Medical Services- Fond Du Lac|23 West Scott Street|Fond Du Lac|WI|54935|(920) 926-0101|Certified|2016-05-19 00:00:00.0000000|-88.44769053|43.79155850|100.00000000
1F696DBF-1E4F-4E3B-9CC5-DDB3211A5B62|R.I.S.A.T., Inc.|Discovery House|66 Pavilion Ave.|Providence|RI|2905|(401) 461-9110|Certified|2006-02-09 00:00:00.0000000|-71.40368300|41.79850502|100.00000000
1F72FCF8-596E-4B4B-AB41-3210734267C5|Toxicology Associates, Inc.||5233 I.H. 37, Suite C-17|Corpus Christi|TX|78408|(361) 882-2064|Certified|2003-10-01 00:00:00.0000000|-97.45522837|27.80366405|100.00000000
1F8C1F1F-64BC-46B8-881C-031E2BF8534E|BHG XLII, LLC|BHG Glen Allen Treatment Center|13100 Mountain Road|Glen Allen|VA|23059|(804) 230-0999|Certified|2017-03-07 00:00:00.0000000|-77.54531850|37.69098300|100.00000000
1FCF6178-48BA-4C76-8D7F-09104E8F7338|Long Island Jewish Hillside Medical Center Methadone Maintenance Treatment Program||75-59 263rd Street|Glen Oaks|NY|11040|(718) 470-8940|Certified|2006-05-11 00:00:00.0000000|-73.71184016|40.74987763|99.02000000
1FF27441-1E01-4380-A8EA-78719CB432DD|PORT Health Services - New Bern MMP||1309 Tatum Road|New Bern|NC|28560|(252) 672-8742|Certified|2008-12-16 00:00:00.0000000|-77.06977467|35.11160696|98.04000000
20167386-487D-41B5-90CF-728CE2BF0133|BAART Behavioral Health Services|Newport Clinic|475 Union St.|Newport|VT|5855|(802) 334-0110|Certified|2006-09-13 00:00:00.0000000|-72.20009936|44.94857506|100.00000000
2026A9AB-31D0-4A9C-ABB7-4E6415699EDD|Meridian Behavioral Healthcare, Inc. - OTP Program|Meridian Behavioral Healthcare, Inc - OTP Program|4310 SW 13th St.|Gainesville|FL|32608|(352) 374-5600 x8976|Certified|2005-07-06 00:00:00.0000000|-82.34124643|29.61254174|100.00000000
202FBEC3-A906-49D2-9686-DD4BC374B824|Evergreen Treatment Services South King County Clinic||1412 SW 43rd|Renton|WA|98057|(425) 264-0750|Certified|2017-07-31 00:00:00.0000000|-122.23624500|47.44172700|98.84000000
20438169-519B-4313-95C7-0F042AB62A8D|CRC Recovery, Inc|Lansing Comprehensive Treatment Center|2025 South Washington Avenue, Suite 210|Lansing|MI|48910|(517) 371-1111|Certified|2010-01-13 00:00:00.0000000|-84.55302900|42.71017500|100.00000000
20456503-0763-4805-9BF8-8728A9864D10|CORNERSTONE FAMILY HEALTHCARE||3 Commercial Place|Newburgh|NY|12550|(845) 220-2146|Certified|2009-01-16 00:00:00.0000000|-74.02756169|41.49379994|100.00000000
2055E044-4D45-477C-8CA9-0DD74A422B75|South Shore Hospital|OTP|8012 South Crandon Ave.|Chicago|IL|60617|(773) 768-0810|Certified|2006-02-16 00:00:00.0000000|-87.56946000|41.74944300|100.00000000
205A6BCE-FD5C-4729-BFE0-273B98545EE4|ConnectionsAccess, LLC|Osborn Clinic|3333 N. 7th Ave|Phoenix|AZ|85013|(602) 753-3360|Certified|2019-01-24 00:00:00.0000000|-112.08314097|33.48675900|100.00000000
205DC98C-CF20-4648-86D9-D57BC948C5D5|Access Recovery Solutions, LLC||16244 S. Military Trail, Suite 110|Delray Beach|FL|33484|(561) 865-2550|Certified|2015-09-11 00:00:00.0000000|-80.12038500|26.43591600|100.00000000
2099BE20-245D-407F-8995-3CC268E137B4|By Grace Counseling Services|Substance Abuse Treatment Program|1002 Patapsco Ave|Baltimore|MD|21225|(410) 354-0849|Certified|2011-05-05 00:00:00.0000000|-76.59558579|39.23433143|99.53000000
209D934B-5441-44FB-9149-C69A82C0D563|Eldorado Texas Community Service Center||5510 N. Cage St. Suite P|Pharr|TX|78577|956-787-3544|Certified|2011-07-08 00:00:00.0000000|-98.19304303|26.14144889|96.93000000
20A4A21E-5AF3-479F-BDAE-A7B0357AAC33|Habit Opco, LLC|Habit OPCO - Lowell|22 Olde Canal Drive|Lowell|MA|01851-2730|(978) 452-5155|Certified|2003-09-01 00:00:00.0000000|-71.35092012|42.62270214|100.00000000
20ACD7C3-A1F2-46F2-8BA6-0031CBF03768|HHDM, Inc. dba Johnston Recovery Services|Johnston Recovery Services|1699 Old US Highway 70 West|Clayton|NC|27520|(919) 359-1699|Certified|2011-04-11 00:00:00.0000000|-78.48047519|35.67129458|100.00000000
20F1CE40-3337-45D7-AF08-A14EA45D6648|Cl?nica de Tratamiento Integral Asistido con Medicamentos Cayey||Ave. Jose' de Diego #392 Oeste|Cayey|PR|736|787-263-2373|Certified|2005-05-04 00:00:00.0000000|-66.17530481|18.11825451|98.44000000
20F91A6E-4FA6-4C37-A6DF-08A31490F67F|High Point Treatment Center, Inc.||1233 State Rd.|Plymouth|MA|02360-5133|(508) 224-7701|Certified|2006-03-16 00:00:00.0000000|-70.53822000|41.88625200|100.00000000
211B5DD1-E7FA-4E13-81F6-95DB17931C35|BayMark Health Services of West Virginia, Inc|MedMark Treatment Centers Morgantown|53 Don Knotts Blvd|Morgantown|WV|26508|(304) 284-0025|Certified|2010-09-30 00:00:00.0000000|-79.96871522|39.60650410|100.00000000
2173590F-0A3C-43C4-8423-D947B3CD01EC|Evansville Treatment Center, LLC|Evansville Treatment Center|1510 West Franklin St.|Evansville|IN|47710|(812) 424-0223|Certified|2004-06-01 00:00:00.0000000|-87.58618689|37.98036647|100.00000000
217F33B2-26E2-4173-9BF3-0DB1C1DD163F|Substance Disorders Treatment Program- Michael E. DeBakey VA Medical Center|Opioid Treatment Program|2002 Holcombe Blvd.|Houston|TX|77030|713-794-8700|Certified|2006-01-17 00:00:00.0000000|-95.38637850|29.70613800|100.00000000
21D4F460-024D-4049-8F8A-C48603470514|BayMark Health Services of Ohio, Inc.|MedMark Treatment Centers Dayton|4201 North Main Street|Dayton|OH|45405|(937) 203-2017|Certified||-84.22131788|39.80417168|100.00000000
21DB8386-E76C-4A7B-84E7-57BD3B39D1BB|New Day Treatment Center, Inc.||2563 Martin Luther King Jr. Drive|Atlanta|GA|30311|(404) 699-7774|Certified|2009-04-08 00:00:00.0000000|-84.47172133|33.75340663|99.55000000
2261DD30-355E-4EC4-8F42-27C6E423BDFD|Addiction Research and Treatment, Inc., (ART)||433 Turk Street|San Francisco|CA|94103|(415) 928-7800|Certified|2003-09-01 00:00:00.0000000|-122.41632834|37.78246670|99.51000000
2263014B-28F8-4F08-B0AE-46B3100C2F9E|COPE Community Services, Inc.||5401 E 5th St|Tucson|AZ|85711|(520) 879-6680|Certified|2006-05-02 00:00:00.0000000|-110.87718300|32.22935100|100.00000000
22A0F717-BBBA-4824-AAB6-A96EF8436B7F|Outlook Recovery, LLC||21030 Point Lookout Road|Callaway|MD|20620|240-237-8325|Certified|2015-09-10 00:00:00.0000000|-76.52631150|38.23816500|100.00000000
22AF1E9D-92C0-4533-B270-5062DCA0E19A|Therapeutic Health Services-Summit Branch||1116 Summit Ave.|Seattle|WA|98101|(206) 323-0930|Certified|2006-02-09 00:00:00.0000000|-122.32401777|47.61150240|100.00000000
22CC790A-6068-4C5E-9285-6C07E9640272|Center for Change - Lawrence||1910 Haskell Avenue - A|Lawrence|KS|66046|(785) 856-1158|Certified|2014-05-12 00:00:00.0000000|-95.22340449|38.94876900|99.70000000
22E54F99-AB04-4173-9889-A8D980A5E5C7|Genesee Council on Alcoholism and Substance Abuse, Inc. (GCASA)|430 East Main Street Batavia, NY 14020|430 East Main Street|Batavia|NY|14020|(585) 343-1124|Certified|2019-08-28 00:00:00.0000000|-78.17298578|42.99614563|100.00000000
2307AD1A-AE43-45FA-96D0-0997382BAC8F|Stepping Stone of North Carolina, LLC|Stepping Stone of Boone|643-L Greenway Road|Boone|NC|28607|(828) 265-7078|Certified|2011-08-04 00:00:00.0000000|-81.66812950|36.19856104|99.99000000
231AFBD7-E1C1-44FF-8D5E-E9595DDB8C07|Lakeview Health Systems, LLC Woman's Program 1st Floor||1900 Corporate Square Dr.|Jacksonville|FL|32216|(904) 727-6455|Certified|2017-06-21 00:00:00.0000000|-81.56061019|30.31072500|98.04000000
23C4AC8F-8BD2-46A9-8FB8-F4FC70873717|The Long Island Home|South Oaks Hospital|400 Sunrise Hwy.|Amityville|NY|11701|(631) 264-4000 x4100|Certified|2006-11-21 00:00:00.0000000|-73.42313850|40.68578700|100.00000000
23DDB905-2E19-48B5-81D6-6E0AB756CB34|Crouse Hospital OTP||410 South Crouse Ave. 1st fl.|Syracuse|NY|13210|(315) 470-8334|Certified|2006-03-29 00:00:00.0000000|-76.13658667|43.04598529|100.00000000
24028076-F159-4166-91A6-39DB25E5302F|WCHS, Inc.|Canyon Park Treatment Solutions|22026 20th Ave SE, Ste 101|Bothell|WA|98021|(425) 672-7293|Certified|2005-08-29 00:00:00.0000000|-122.20692300|47.79745200|100.00000000
2407F990-A0A3-4260-B945-33725EAC676C|Riverside Treatment Services Lansdowne, LLC|Riverside Treatment Services Lansdowne LLC|1903 Lansdowne Road|Baltimore|MD|21127|(410) 565-6244|Certified|2020-06-30 00:00:00.0000000|-76.66690191|39.25279568|99.00000000
2409719E-6C8E-4C35-AEFB-FD2D3CE69CB8|FMTC - Fairfax Methadone Treatment Center||7008 Little River Turnpike, Suite G|Annandale|VA|22003|(703) 333-3113|Certified|2003-12-01 00:00:00.0000000|-77.18633550|38.83019400|100.00000000
249C2207-6316-47D6-88F5-CD591F9F8161|Bayview Hunters Point Foundation for Community Improvement, Inc.|Bayview Hunters Point Foundation for Community Improvement. Inc.|1625 Carroll Avenue|San Francisco|CA|94124|(415) 822-8200|Certified|2003-09-01 00:00:00.0000000|-122.39362904|37.72502709|100.00000000
24A2C592-FCF4-4B5C-B226-3322FFD97DEA|Crossroads' Turning Points Inc.|Crossroads' Turning Points Inc.|2265 Lava Lane|Alamosa|CO|81101|(719) 589-5176|Certified|2016-12-06 00:00:00.0000000|-105.86925359|37.44842412|100.00000000
24C3A153-BEEB-43F9-B9D0-6005484357A5|Counseling And Recovery Services (CARS)|Counseling and Recovery Services|4300 SPID|Corpus Christi|TX|78411|(361) 814-8107|Certified|2011-03-30 00:00:00.0000000|-97.39247238|27.71903410|100.00000000
24E36C75-893C-4E55-9036-9B31F54B0996|Valle del Sol|Valle del Sol|1209 S. 1st Ave|Phoenix|AZ|85003|(602) 258-6797|Certified|2006-01-12 00:00:00.0000000|-112.07471400|33.43590000|100.00000000
24FC250A-F100-4E3E-86E0-E244272651A5|Aegis Treatment Centers, LLC||11041 East Valley Blvd.|El Monte|CA|91731|(626) 442-4177|Certified|2003-12-01 00:00:00.0000000|-118.03376700|34.07446800|98.87000000
256493BD-9678-4AE5-B6CA-72E6FF98892A|Rockingham County Department of Corrections|Rockingham County Department of Corrections|99 North Road|Brentwood|NH|3833|(603) 679-2244|Provisional||-71.05066693|43.01205635|100.00000000
258B180E-DC6C-4C7E-AB42-5A8136ADA67D|BrightView, LLC OTP Georgetown||421 Home Street|Georgetown|OH|45121|(513) 834-7063|Provisional||-83.89790537|38.85923857|100.00000000
25A52795-BACD-4752-8E5B-B67CED62CB83|BHG XXVI, LLC|Kentucky Treatment Centers-Hazard|48 Independence Drive|Hazard|KY|41701|(606) 487-1646|Certified|2007-09-04 00:00:00.0000000|-83.22751799|37.28351338|100.00000000
25E6D4D0-A827-4AAD-8A43-185144E1D26F|Lake County Center, LLC||310 S Greenleaf St|Gurnee|IL|60031|(847) 599-8902|Provisional||-87.90316650|42.35600700|100.00000000
25F0B7CA-6514-4C15-ACB3-82F409B2F1B3|Community Medical Services- Camelback||4527 North 27th Avenue|Phoenix|AZ|85017|602-775-5655|Certified|2019-11-05 00:00:00.0000000|-112.11699203|33.50306700|100.00000000
2647ECF3-816A-401D-87A2-D5A64558F04B|Crossroads Treatment Center of Somerset, PSC||607 Clifty Street|Somerset|KY|42503|(606) 485-4730|Certified|2018-11-13 00:00:00.0000000|-84.61760368|37.09795694|100.00000000
2672A079-DCF0-4DD2-B59A-FD7A1E57C614|Habit Opco, LLC|Habit OPCO - Fitchburg|155 Airport Rd.|Fitchburg|MA|01420-8142|(978) 343-6300|Certified|2003-09-01 00:00:00.0000000|-71.77384261|42.56497819|100.00000000
267646A3-B45F-473F-A9DD-693F61877939|DESERT TREATMENT CLINIC, LLC|DESERT TREATMENT CLINIC|1546 W. WARM SPRING RD #130|HENDERSON|NV|89014|(702) 248-0000|Certified|2013-01-14 00:00:00.0000000|-115.05246300|36.05630052|100.00000000
26A142A4-9BB6-453B-9B83-34EC96200C46|The University of Kansas Hospital Addictions Clinic||3901 Rainbow Boulevard, MS 4015|Kansas City|KS|66160-0001|(913) 588-6445|Certified|2006-01-31 00:00:00.0000000|-94.61178715|39.05555906|98.72000000
26DA3BFE-7909-41C8-A078-28CC5A60E7BF|Metro Treatment of Georgia, LP|Columbus Metro Treatment Center|1135 13th Street|Columbus|GA|31902|(706) 887-5030|Certified|2015-05-11 00:00:00.0000000|-84.97618784|32.47053993|99.51000000
27342C33-E3A5-4BFB-87D2-87FEAC0FAC51|Eastern Avenue Health Solutions, Inc.||5920 Eastern Avenue|Baltimore|MD|21224|(410) 631-2772|Certified|2011-02-17 00:00:00.0000000|-76.54508334|39.28758086|100.00000000
27514308-0E0F-4BBD-9AEE-BAB090AE2E64|Rose Medical Association, Inc. / Springfield||3535 Mayflower Blvd.|Springfield|IL|62711|(217) 670-0654|Certified|2018-11-19 00:00:00.0000000|-89.71830699|39.75262201|100.00000000
2755E09D-69C9-4926-8D00-E6C4DDDC47DC|Fort Help LLC||915 Bryant St.|San Francisco|CA|94103|(415) 777-9953|Certified|2003-12-07 00:00:00.0000000|-122.40486900|37.77384600|100.00000000
27D7800D-5B60-4C0A-9262-C55F50B8DA63|Medmark Treatment Centers of Georgia, Inc.|MedMark Treatment Centers Blairsville|20 Commerce Drive|Blairsville|GA|30512|(706) 781-6987|Certified|2008-09-30 00:00:00.0000000|-83.94348525|34.87183028|100.00000000
27F3C424-5C8D-4942-B87C-8708BF6EB450|Las Vegas Recovery Center||3371 N. Buffalo Ave.|Las Vegas|NV|89129|(702) 515-1374|Certified|2013-09-12 00:00:00.0000000|-115.26225750|36.22167900|98.06000000
27FDFF7D-AD41-4CCE-B7D5-B7EF2B3F20D7|Quapaw Counseling Services||58150 East 66 Road|Miami|OK|74354|(918) 542-1786|Certified|2007-08-30 00:00:00.0000000|-94.84148424|36.91958896|100.00000000
281E2544-6DA6-4CE5-99AF-9D6F5FC1306C|Nassau Health Care Corporation||2201 Hempstead Turnpike|East Meadow|NY|11554|(516) 572-6511|Certified|2009-07-22 00:00:00.0000000|-73.55334150|40.72641300|100.00000000
282624D7-EB1A-47BC-B336-E03FE6D362B4|North Charles Institute for the Addictions: The Cambridge Hospital Narcotic Treatment Program||1493 Cambridge Street|Cambridge|MA|2139|(617) 661-5700|Certified|2006-06-01 00:00:00.0000000|-71.10432450|42.37473600|100.00000000
284C3F8C-AB15-4E94-8465-35249F91170C|St. John's Riverside Hospital-Park Care Pavilion O.T.P.||2 Park Avenue|Yonkers|NY|10703|(914) 964-7972|Certified|2006-10-19 00:00:00.0000000|-73.89222184|40.93954163|100.00000000
285F7321-2E6C-40B9-86C8-9F3E3CD93C95|Colonial Management Group, LP|Augusta Metro Treatment Center|2357 Tobacco Road|Augusta|GA|30906|(706) 722-3855|Certified|2004-01-01 00:00:00.0000000|-82.04927650|33.37350743|100.00000000
28681960-C1E7-4956-9E9B-B2F4D55CE932|Martinsburg Institute||223 Eagle School Road|Martinsburg|WV|25404|(304) 263-1101|Certified|2004-08-01 00:00:00.0000000|-77.95267026|39.47504230|100.00000000
28932C8F-1912-43A1-A323-DC292A723900|BHGXXXIII, LLC|BHG Paducah Treatment Center|2705 Olivet Church Road|Paducah|KY|42001|(270) 443-0096|Certified|2004-02-29 00:00:00.0000000|-88.70092828|37.07009685|100.00000000
28CFE4E0-32A3-4C53-893A-90F78449151F|Centro de Quimioterapia de Bayamon|Centro de Tratamiento Integral Asistido con Medicamentos de Bayam?n|Carretera # 5 Avenida Central Juanita|Bayamon|PR|960|(787) 269-3045|Certified|2004-02-01 00:00:00.0000000|-66.13545706|18.41321246|91.24000000
29414CA6-392F-406E-AF9D-BC812AD44B35|Addiction Research and Treatment, Inc.||539 North Van Ness Ave.|Fresno|CA|93728|(559) 266-9581|Certified|2003-09-01 00:00:00.0000000|-119.79892848|36.75119400|100.00000000
29470CE5-EB37-4AC7-8B16-09EE5C98F12A|San Diego Health Alliance, Inc.|Capalina Clinic|1560 Capalina Rd.|San Marcos|CA|92069|(760) 744-2104|Certified|2006-06-22 00:00:00.0000000|-117.19464149|33.15089044|100.00000000
294C0024-1C43-4741-A534-773C07EB718A|Staunton Treatment Center, LLC||15 Green Hills Drive|Verona|VA|24482|(804) 230-0999|Certified|2019-04-18 00:00:00.0000000|-79.02473763|38.19093201|100.00000000
29532F52-CE78-479C-A6AD-5A9A768A134D|11100 Billingsley Road OPCO LLC|Recovery Centers of America Capital Region|11100 Billingsley Road|Waldorf|MD|20602||Provisional||-76.92607031|38.58860623|100.00000000
29DADCE5-2A84-42AA-80CD-3831AFA8CA09|Ku Aloha Ola Mau|Ku Aloha Ola Mau|1130 North Nimitz Hwy., C-302|Honolulu|HI|96817|(808) 538-0704|Certified|2006-07-21 00:00:00.0000000|-157.87584030|21.31847320|98.92000000
2A14FCDE-0FB2-468E-ADA8-7688BCE18A53|BAART Behavioral Health Services|La Puente Clinic|15229 East Amar Rd.|La Puente|CA|91744|(626) 855-5090|Certified|2006-09-08 00:00:00.0000000|-117.95261922|34.03787172|100.00000000
2A201479-F805-4389-A5D5-38E53D2ECB63|The Lennard Clinic III|Outpatient Methadone Clinic|850 Woodruff Lane|Elizabeth|NJ|7201|(908) 352-0850|Certified|2003-09-01 00:00:00.0000000|-74.19440575|40.67302726|100.00000000
2A21AB27-0452-4DF6-92CF-A5FE1DC71A54|Metro Treatment of Alabama L.P.|Birmingham Metro Treatment Center|151 Industrial Drive|Birmingham|AL|35211|(205) 941-1799|Certified|2004-01-01 00:00:00.0000000|-86.85061303|33.44878674|100.00000000
2A2BE7EC-431E-4372-A8D5-41D12F029E1B|Specialized Treatment Services, Inc., Brooklyn Park||7472 Lakeland Blvd|Brooklyn Park|MN|55428|(612) 236-1702|Certified|2014-03-12 00:00:00.0000000|-93.38065478|45.09005960|97.53000000
2A7C543A-7E4D-40A6-99CB-0389D69E6DDA|Western Pacific Rehabilitation (Panorama)||9462 Van Nuys Blvd.|Panorama City|CA|91402|(818) 891-8555|Certified|2004-01-25 00:00:00.0000000|-118.45020353|34.24231800|100.00000000
2B34B6A4-321F-4676-A97D-2DEB9A126BE0|St. Joseph's Hospital, Yonkers-Powell Street Clinic|Brooklyn Addiction Services Program|211-221 Powell St.|Brooklyn|NY|11212|(718) 485-6000|Certified|2005-09-09 00:00:00.0000000|-73.90379011|40.66909092|98.97000000
2B4F50CE-5DE6-4E48-A54B-CAE9AA2631D4|Community Medical Services - Northern||2301 West Northern|Phoenix|AZ|85021|(602) 866-9378|Certified|2003-11-01 00:00:00.0000000|-112.10859000|33.55264800|98.84000000
2B534AA0-B45D-472B-AE5B-CF78CFAF963A|Aegis Treatment Centers, LLC|Healthy Connections|1947 N. California Street, Ste-B|Stockton|CA|95204|(209) 463-0870|Certified|2006-01-06 00:00:00.0000000|-121.28995350|37.97186400|100.00000000
2B65B422-6AC4-4E77-8D01-915856367312|Integrity, Inc.|Integrity House|595 County Ave.|Secaucus|NJ|07096-2505|201-583-7100|Certified|2004-02-29 00:00:00.0000000|-74.05838097|40.78081265|97.10000000
2B7A3015-33AD-4D7E-AC8F-25DFCFB72E71|ALTR of Jackson, LLC|Alternatives for Life Treatment and Recovery, LLC|500 D East Woodrow Wilson Dr.|Jackson|MS|39216|(601) 362-3131|Certified|2006-03-07 00:00:00.0000000|-90.17864100|32.32691566|99.73000000
2B907AC8-9533-4753-A3B3-6FF0891828F2|Urban Recovery||411 Van Brunt St|Brooklyn|NY|11231|(646) 960-6656|Provisional||-74.01501576|40.67545057|100.00000000
2B960880-9A86-4303-84C0-71D56274203F|Woodstock Treatment Center, LLC||270 Heritage Walk|Woodstock|GA|30188|(678) 494-5700|Certified|2013-06-26 00:00:00.0000000|-84.52512982|34.08448344|100.00000000
2BA70C08-C340-450B-AB6D-3150D99E7C49|CommQuest Services, Inc.||200 East State Street|Alliance|OH|44601|(330) 821-9846|Certified|2019-01-07 00:00:00.0000000|-81.10313181|40.90171951|100.00000000
2BC72F9B-C41D-440F-B1D6-2B786642CECD|Chesapeake Treatment Services Ocean City|Chesapeake Treatment Services Ocean City|12417 Ocean Gateway|Ocean City|MD|21842|(410) 373-2113|Certified|2018-10-17 00:00:00.0000000|-75.12285761|38.33963951|100.00000000
2BD96496-F122-4158-A741-49C3F0BA4A6F|Nardin Park Recovery Center||9605 Grand River Ave.|Detroit|MI|48204|(313) 834-5930|Certified|2004-09-01 00:00:00.0000000|-83.13579955|42.36737529|100.00000000
2BE2E2AD-7063-402C-868A-E76A1B8DDEF1|Crossroads Treatment Center at Sugarloaf, PC||2855 Lawrenceville Suwanee Road|Suwanee|GA|30025|(770) 904-3955|Certified|2012-12-12 00:00:00.0000000|-84.04281900|34.02650700|98.81000000
2C0555F1-A428-40A2-BD29-817EDA61F6DF|Western Wake Treatment Center||2172 North Salem Street|Apex|NC|27523|(919) 629-4360|Certified|2016-12-08 00:00:00.0000000|-78.83405315|35.75715639|100.00000000
2C683996-680E-489D-B114-730122918710|Montefiore Medical Center SATP Unit I||3550 Jerome Ave.|Bronx|NY|10467|(718) 920-4067|Certified|2003-12-11 00:00:00.0000000|-73.88013097|40.88416555|100.00000000
2C69ED8F-903A-43D2-AD48-20F4DC6DB912|Center for Behavioral Health Las Vegas, Inc.||3470 West Cheyenne Ave.|North Las Vegas|NV|89032|(702) 636-0085|Certified|2007-09-04 00:00:00.0000000|-115.18588006|36.21756445|100.00000000
2C9BF32D-CB1A-4091-AA3A-46774710AFAF|B.N.J. HEALTH SERVICES, LLC (EASTON)||505 Dutchmans Lane|Easton|MD|21601|(410) 763-9040|Certified|2016-01-12 00:00:00.0000000|-76.06626300|38.76046200|100.00000000
2CB54AA4-FC1D-40D8-92BE-808CA4597D6A|BHG XXXIV, LLC|BHG Corbin Treatment Center|967 South Hwy. 25 West|Corbin|KY|40702|(606) 526-9348|Certified|2004-02-29 00:00:00.0000000|-84.08511889|36.96719310|89.87000000
2CC0D7A6-2167-42E7-8E95-3FA525E68498|Minneapolis VA Health Care System Opiate Treatment Program|Addiction Recovery Services Opiate Treatment Program|One Veterans Dr., Outpatient Methadone Progr. 116-A|Minneapolis|MN|55417|(612) 467-2228|Certified|2003-08-29 00:00:00.0000000|-93.23229500|44.90623500|85.00000000
2D14B808-3824-4600-898F-884FC034942A|Progressive Medical Specialists, INC||4974 El Cajon Blvd., Ste. A|San Diego|CA|92115|(619) 286-4600|Certified|2007-04-02 00:00:00.0000000|-117.08722276|32.75677124|100.00000000
2D1761B1-4BE3-4F0E-8162-E9D6915A2750|Habit Opco, LLC|Habit OPCO - Manchester|20 Market St.|Manchester|NH|3104|(603) 622-4747|Certified|2003-09-01 00:00:00.0000000|-71.46387000|42.99023700|99.51000000
2D1AC657-ECB0-4FA2-91A5-CA7FE64735EB|Spectrum Outpatient - Waltham, MA|Spectrum Health Systems, Inc.|210 Bear Hill Road|Waltham|MA|2452|(781) 290-4970|Certified|2015-01-08 00:00:00.0000000|-71.26553794|42.38326863|98.57000000
2D1EF829-7AF7-4AAC-A4F4-849D7ED5DAE1|Northpointe Council, Inc. Methadone - Maintenance Treatment Program Trott Access Center|Northpointe Council, Inc. Methadone- Maintenance Treatment Program|Trott Access Center, 1001-11th St.|Niagara Falls|NY|14301|(716) 278-8110|Certified|2005-10-24 00:00:00.0000000|-79.04929500|43.09876800|96.30000000
2D28D4D9-C854-40E2-AC30-23316D45FC4F|SOAR Corp||33 WILLIAMS STREET|LANSDOWNE|PA|19050|(215) 464-4450|Certified|2011-12-21 00:00:00.0000000|-75.25561626|39.94010306|100.00000000
2D3E0747-6014-4224-BB3A-064CE8DE07B8|Pursuit of Hope OTP Group, LLC||2620 Cullen Blvd|Pearland|TX|77581|832-780-3960|Certified||-95.35056254|29.56155912|100.00000000
2D40B650-9F37-4670-AF95-EB17730B4B48|BayMark Health Services of Ohio, Inc.|MedMark Treatment Centers Amherst|530 North Leavitt Rd|Amherst|OH|44001|(440) 328-4213|Provisional||-82.21154406|41.41234806|100.00000000
2D674B0E-FA48-408B-B47A-3DE2EA7214D0|VBMC - Virginia Beach Methadone Clinic||1728 Virginia Beach Blvd., Suite 113|Virginia Beach|VA|23454|(757) 437-0411|Certified|2003-12-01 00:00:00.0000000|-76.02358050|36.84402000|100.00000000
2D92CDA0-A9EB-45B0-A46E-EF11E40B1B81|Community Health Care, Inc.|Health Care Resource Centers|177 Shelburne Rd.|Greenfield|MA|1301|(413) 774-3321|Certified|2006-07-13 00:00:00.0000000|-72.62161650|42.58754100|100.00000000
2DDBCD76-7C0B-4B07-94DF-33C19C2A7533|Lakeview Health Systems, LLC||1900 Corporate Square Blvd|Jacksonville|FL|32216|(904) 727-6455|Certified|2003-11-13 00:00:00.0000000|-81.56061019|30.31072500|100.00000000
2E0B26F2-E7AE-45BE-9DB8-A107FBCFDAC5|Preferred Treatment||1101 Hillcrest Parkway, Unit F|Dublin|GA|31021|(478) 274-8426|Certified|2011-05-23 00:00:00.0000000|-82.93793443|32.54608801|100.00000000
2E322F5B-2315-491D-B4FB-7382049B1608|SOAP MAT, LLC|SOAP MAT, LLC|3230 Waring Court, Suite A|Oceanside|CA|92056-4509|(760) 305-7528|Certified|2013-05-07 00:00:00.0000000|-117.28948156|33.18778117|100.00000000
2E872917-8D22-477C-8AE9-46357F916B13|Opioid Treatment Program East Orange Veterans Administration Hospital|Part of VANJ Healthcare System|385 Tremont Ave.|East Orange|NJ|7018|(973) 676-1000 x3330|Certified|2003-10-30 00:00:00.0000000|-74.23432976|40.75380168|100.00000000
2E8EBD72-7F35-4C5D-A319-99FCC025AECD|Aegis Treatment Centers, LLC||115 East Fesler St.|Santa Maria|CA|93454|(805) 922-6597|Certified|2005-01-01 00:00:00.0000000|-120.43503000|34.95649047|100.00000000
2E9ED315-C90B-4EAC-9A36-041D90F23FCA|Richmond Southside Treatment Center|New Season|9609 Jefferson Davis Highway|Richmond|VA|23237|(804) 275-1116|Certified|2005-04-06 00:00:00.0000000|-77.42842200|37.39431600|100.00000000
2ECA0888-D000-42F6-86E5-97F32DF6D926|Adapt OTP|Adapt|548 SE Jackson Street Suite 100|Roseburg|OR|97470|(541) 673-2770|Certified|2018-10-25 00:00:00.0000000|-123.34393761|43.20917348|100.00000000
2EEE19C0-A98F-4E52-9CCE-4D4C11A87687|Merakey Parkside Recovery|Merakey Parkside Recovery- Germantown|5429 Germantown Ave.|Philadelphia|PA|19144|(215) 754-0246|Certified|2008-04-14 00:00:00.0000000|-75.17118302|40.03348929|100.00000000
2F00ABB9-D6DC-4716-867B-27F717B392FB|Addiction Resources, Inc.||4337 W. Indian School Road, Suite 109|Phoenix|AZ|85031|(602) 233-9401|Certified|2004-04-01 00:00:00.0000000|-112.15314000|33.49493355|100.00000000
2F08A127-6A58-446A-932E-F807CA7088E6|Habit Opco, LLC|Habit Opco - Brattleboro|16 Town Crier Drive|Brattleboro|VT|5301|(802) 258-4623|Certified|2008-04-01 00:00:00.0000000|-72.55681554|42.87092137|100.00000000
2F25C097-0F1D-4B4D-83A8-4B52DF42828D|Complete HealthCare for Women|Complete Healthcare For Women|5888 Cleveland Avenue|Columbus|OH|43231|(614) 882-4343|Certified||-82.95056869|40.09157471|100.00000000
2F333BC7-3CE7-4779-8820-57E78050D515|Choices of Louisiana, Inc. at Alexandria||2116 N Bolton Ave|Alexandria|LA|71301|(318) 445-1250|Certified|2005-03-15 00:00:00.0000000|-92.47633322|31.32256664|99.52000000
2F57BFE1-2372-490D-A7E9-49AAEEFCF35E|Metro East Drug Treatment|Metro East Substance Abuse Treatment Corporation|13929 Harper Ave.|Detroit|MI|48213|(313) 371-0055|Certified|2004-02-28 00:00:00.0000000|-82.96886540|42.40342567|100.00000000
2F751D7A-610F-403C-A95C-04FE41C38F23|Promesa, Inc.||1776 Clay Ave.|Bronx|NY|10457|(917) 734-1691|Certified|2004-03-26 00:00:00.0000000|-73.90428300|40.84615800|100.00000000
2FE18A31-F713-4B94-8481-29F1C2D933C3|Maryhaven Addiction Stabilization Center (MASC)||1430 S. High Street|Columbus|OH|43207|(614) 445-8131|Certified|2019-03-04 00:00:00.0000000|-82.99516050|39.93315300|100.00000000
302D3354-036B-49C9-8799-B18DFD1E7D24|Cornell Scott - Hill Health Center|South Central Rehabilitation Center|232 Cedar St.|New Haven|CT|6519|(203) 503-3300|Certified|2004-05-09 00:00:00.0000000|-72.93217184|41.29921858|100.00000000
30685376-EA5F-4FE1-B5B2-83CB25C051CC|Community Medical Services- Buckeye||213 East Monroe Avenue|Buckeye|AZ|85326|(623) 233-1330|Provisional||-112.58851050|33.37022700|100.00000000
3086264F-36E9-487E-94A4-202AF7500389|Addiction Research and Treatment - La Puente Clinic|BAART - La Puente|15229 East Amar Rd.|LaPuente|CA|91744|(626) 855-5090|Certified|2003-09-01 00:00:00.0000000|-117.95261922|34.03787172|99.00000000
309D9646-DE71-43D0-A784-D8D15D5EDF87|Chatham Recovery|Chatham Recovery|1758 East 11th Street|Siler City|NC|27344-2845|(919) 663-3303|Certified|2016-04-26 00:00:00.0000000|-79.43376600|35.73357300|100.00000000
30A4421C-810A-4D6F-A5BC-D88087D6D490|American Health Services LLC||2720 E. Palmdale Blvd. #129, #130, #131|Palmdale|CA|93550|(661) 947-3333|Certified|2004-05-01 00:00:00.0000000|-118.08007144|34.58016516|98.54000000
30C8B2D9-B88E-47B0-B3E6-F43FE4EA0DBF|Western Pacific Rehabilitation (Norwalk)||11902 E. Rosecrans Blvd.|Norwalk|CA|90650|(562) 929-7188|Certified|2004-01-25 00:00:00.0000000|-118.07967150|33.90190200|96.93000000
30D16CEC-F77E-4578-BCEF-692AEAB05284|Arms Acres, Inc|Arms Acres, Inc|75 Seminary Hill Rd|Carmel|NY|10512|(845) 704-6117|Certified|2018-09-28 00:00:00.0000000|-73.68028457|41.41200346|100.00000000
3114DB24-398F-4EC2-BE77-52A28E75C91C|New Mexico Treatment Services, LLC|Una Ala Clinic|1264 Rodeo Rd|Santa Fe|NM|87505|(505) 982-2129|Certified|2008-02-04 00:00:00.0000000|-105.96055438|35.63867303|100.00000000
316CE956-2DE3-47F2-9FE0-5D0FAD2358B5|Intensive Treatment Systems, LLC - Main|Intensive Treatment Systems|651 West Coolidge St.|Phoenix|AZ|85013|(602) 248-0550|Certified|2003-09-01 00:00:00.0000000|-112.08199282|33.50477121|100.00000000
31A9A261-9685-4966-9DBF-75A69F8E11C5|Spectrum Health Systems, Inc.||154 Oak Street|Westborough|MA|1581|(508) 898-1570|Certified|2006-01-23 00:00:00.0000000|-71.62726627|42.28558260|100.00000000
31EF2927-F708-4FE7-B9B4-3018B4994F8D|Winchester Health LLC||1315 Bloomingdale Rd|Baltimore|MD|21209|410-624-7111|Certified|2019-03-11 00:00:00.0000000|-76.66588978|39.30264790|98.53000000
31F63314-F0BB-4A9F-B3C3-830C2B5C1525|WCHS, Inc.|Riverside Treatment Center|1021 West La Cadena Drive|Riverside|CA|92501|(951) 784-8010|Certified|2006-06-22 00:00:00.0000000|-117.35051578|34.00411375|100.00000000
31F9A71D-8089-47BA-92BD-7C05F13E9EB4|Anti-Aging & Longevity Center of Texas, P.A.||8021 East R.L. Thornton Freeway|Dallas|TX|75228|(214) 328-4848|Certified|2004-10-01 00:00:00.0000000|-96.70461124|32.79435244|100.00000000
32428919-396A-4837-B69A-9CC5A2F78640|Northshore Treatment Center||176 Uvalde Rd.|Houston|TX|77015|(713) 455-7008|Certified|2004-04-01 00:00:00.0000000|-95.18269401|29.79875925|100.00000000
325BB33F-5F67-434D-AD01-9A5D22EF0DE9|Pinnacle Treatment Centers OH-III, LLC|Akron Treatment Services|87 Conservatory Drive|Barberton|OH|44203|(234) 334-0303|Certified|2019-08-23 00:00:00.0000000|-81.59058633|41.00921944|100.00000000
32976DB5-4AB7-488B-94E2-BE8F9CADD876|Metro Treatment of North Carolina LP -Durham|Durham Treatment Center|1913 Lamar Street|Durham|NC|27705|(919) 286-1509|Certified|2003-12-01 00:00:00.0000000|-78.92238529|36.02777227|100.00000000
32985CBF-15E5-4A15-A5CC-CA0D57E57573|B.N.J. HEALTH SERVICES, INC. SALISBURY||204 NEWTON STREET|SALISBURY|MD|21801|(443) 978-7919|Certified|2015-01-09 00:00:00.0000000|-75.60003443|38.35903949|100.00000000
32BEAC1C-6A8A-4B0E-A758-F2782228235C|Conifer Park, Inc||80 Sharron Ave|Plattsburgh|NY|12901|(518) 561-0130|Certified|2014-11-13 00:00:00.0000000|-73.45174519|44.67909039|100.00000000
32C7D2D0-9BFB-429D-AA52-F0BD2C47146C|Alpha Medical Services|Community Medical Services|3825 N. 24th street|Phoenix|AZ|85016-6512|(602) 955-7997|Certified|2003-11-01 00:00:00.0000000|-112.02984450|33.49227600|100.00000000
32E489D5-D419-444C-AF2A-3E83BB043B61|Community Health Care, Inc.|Health Care Resource Centers|175 Crescent Ave.|Chelsea|MA|2150|(617) 889-8779|Certified|2004-09-01 00:00:00.0000000|-71.02344184|42.39648266|100.00000000
32F3E7FD-6286-47E0-A6E1-BDA94C646299|Tewksbury Treatment Center of NBH|Beth Israel Lahey Health Behavioral Services|365 East Street - Saunders Building|Tewksbury|MA|1876|(978) 259-7000|Certified|2014-09-23 00:00:00.0000000|-71.21685546|42.61250371|96.36000000
3303EC02-C1CD-411F-9D81-AAAA38EFD485|American Addiction Treatment Services, Inc.||1496 N. Beale Rd.|Marysville|CA|95901|(530) 749-8640|Certified|2004-07-01 00:00:00.0000000|-121.56161667|39.12742124|100.00000000
3320E871-A385-4A1A-85F1-C2152E22E876|PEER Services, Inc.||906 Davis St.|Evanston|IL|60201|(847) 492-1778|Certified|2003-09-01 00:00:00.0000000|-87.68374650|42.04702855|100.00000000
336666A5-FBC6-4534-92BC-1789E9BDF04B|Intensive Treatment Systems, LLC - West||4136 N 75th Ave #116|Phoenix|AZ|85033|(623) 247-1234|Certified|2006-10-04 00:00:00.0000000|-112.22061794|33.49624308|100.00000000
33791822-04BB-4365-BAB8-61AE449493BA|Michigan Therapeutic Consultants, PC|Michigan Therapeutic Consultants - Gaylord|711 S. Illinois|Gaylord|MI|49735|989-732-4357|Certified|2015-03-20 00:00:00.0000000|-84.68102109|45.02002453|98.84000000
3380F2F8-C94C-4E80-BFC4-74D8D711314C|Bon Secours' ADAPT Cares||2401 West Baltimore Street|Baltimore|MD|21223|(410) 383-4962|Certified|2004-09-02 00:00:00.0000000|-76.65429373|39.28781377|100.00000000
3386AA3C-6039-441D-8EF5-01B1F837F0D6|Thunderbird Treatment Center|Thunderbird Treatment Center|13820 North 51st Ave., Suite 300|Glendale|AZ|85306|(602) 938-2301|Certified|2003-10-01 00:00:00.0000000|-112.16849550|33.61158900|100.00000000
33D9B60C-8ECC-47B3-9753-7577D9F62ED3|White Deer Run of Lancaster||53-55 N. West End Avenue|Lancaster|PA|17603|(717) 396-0650|Certified||-76.32302635|40.03950152|99.41000000
340CB174-E08C-44EB-ABB5-707E9A303EFF|Metro Treatment of Texas L.P.|Dallas County Treatment Center|123 East Colorado Blvd.|Dallas|TX|75203|(214) 946-5540|Certified|2006-03-16 00:00:00.0000000|-96.82209072|32.75880939|100.00000000
343397AF-0349-441A-9818-834C080CA345|S.E.S. Operating Corporation, Harlem East Life Plan Unit II|Harlem East Life Plan- Unit II|2367-69 Second Avenue|New York|NY|10035|(212) 876-2300|Certified|2012-04-11 00:00:00.0000000|-73.98952200|40.72635900|97.19000000
34652692-CE5C-4BDB-B51E-2E25F6341AAD|Elite Treatment Center||395 Lincoln Highway|Chicago Heights|IL|60411|(708) 755-5117|Certified|2019-09-17 00:00:00.0000000|-87.61650975|41.50626731|100.00000000
346FA039-BDC7-4826-8B88-381A538D095A|Spectrum Outpatient - Haverhill|Spectrum Health Systems, Inc.|100 Plaistow Rd|Haverhill|MA|1830|(978) 373-4985|Certified|2015-05-13 00:00:00.0000000|-71.10441450|42.81451200|100.00000000
3475A5D8-E968-4981-B2ED-A450CF19FB41|Behavioral Health Network Springfield||395 Liberty St|Springfield|MA|1104||Provisional||-72.58633939|42.11367429|100.00000000
34C93E5E-DBEC-4AA9-BAFF-5875DB345075|Metro Treatment of North Carolina, LP|Hickory Metro Treatment Center|1152 Lenoir Rhyne Blvd. S.E.|Hickory|NC|28601|828-485-1320|Certified|2011-10-27 00:00:00.0000000|-81.31418909|35.71737811|99.52000000
353F8ECA-EA1F-43A5-ADCD-1F79C0AF0DD7|Tri County Treatment Center P.C.||5605 Clifford Circle|Birmingham|AL|35210|(205) 836-3345|Certified|2004-01-01 00:00:00.0000000|-86.63393747|33.58306711|100.00000000
354455A8-3D9A-4744-A771-30BB5D66D74B|Echo Treatment Center, LLC|Methadone Clinic|50 east Wylie ave suites 2 and 3|washington|PA|15301|724-222-6220|Certified|2017-01-13 00:00:00.0000000|-80.26392976|40.18226892|99.05000000
35548542-1431-4485-B51E-9A8432C00A14|Buffalo Beacon Corporation|Beacon Center|303 W. Liberty St|Rome|NY|13440|(315) 367-1290|Certified|2017-10-18 00:00:00.0000000|-75.46104076|43.21411685|100.00000000
35561BEE-E418-4236-897B-99C00AA0B6B0|Metropolitan Hospital Center Detoxification Unit||1901 First Avenue|New York|NY|10029|(212) 423-7121|Certified|2006-06-08 00:00:00.0000000|-73.94373183|40.78464336|100.00000000
355D2DC2-C34C-47B0-8A03-09F48D1CC430|Medication Assisted Recovery Clinic|ClearPath Clinic|1402 E. Superior SE|Duluth|MN|55805|(218) 529-1188|Certified|2017-02-13 00:00:00.0000000|-92.08026000|46.80027000|92.85000000
35843CC9-CBAC-4F4C-AD87-1E8999327559|Great Heights OTP - Ottawa||315 E Mckinley Road|Ottawa|IL|61350|(815) 434-0228|Certified|2017-07-19 00:00:00.0000000|-88.83670100|41.32439108|100.00000000
35A17FA3-39E9-4570-87B9-E3DA6607C2F2|Bradford Regional Medical Center||116 Interstate Parkway|Bradford|PA|16701|(814) 362-8421|Provisional||-78.66028428|41.96121173|100.00000000
35D53D46-6896-4C97-8B4A-CCA42DF2AE9E|Intermountain Dayspring - Logan||550 E. 1400 N. STE T|Logan|UT|84341|(435) 716-1320|Certified|2020-01-30 00:00:00.0000000|-111.81960015|41.75739188|100.00000000
35DDBB7F-296E-4BC0-8753-8495B1862312|Addiction Research and Treatment - Southeast Clinic|BAART - Clinic|4920 South Avalon Blvd.|Los Angeles|CA|90011|(323) 235-5035|Certified|2003-09-01 00:00:00.0000000|-118.26521250|33.99813000|98.87000000
35E0FD4E-1754-44EB-B217-B6994384B828|Mission Treatment Centers, Inc.|Mission Tulsa|5550 South Garnett|Tulsa|OK|74146|(918) 665-2501|Certified|2004-04-01 00:00:00.0000000|-95.85219600|36.08415000|98.84000000
3626E2B0-1A2F-4406-90F2-C8FE7EE40D6F|BHG LII, LLC|BHG Jackson Treatment Center|794 McDonough St., Suite 104|Jackson|GA|30233|(770) 775-9044|Certified|2006-11-16 00:00:00.0000000|-83.97540956|33.30104389|98.04000000
363B33DB-217B-4C7F-B14E-B4BD5363A7E8|Crossroads Treatment Center of Ashland, PSC||1220 Greenup Avenue|Ashland|KY|41101|(606) 393-1165|Certified|2018-11-07 00:00:00.0000000|-82.64276474|38.48154353|100.00000000
36461724-BB8D-4B1A-8840-2FD11B2511C7|MedMark Treatment Centers Cherry Hill|Medmark Treatment Centers Cherry Hill|1801 Cherry Hill Road|Baltimore|MD|21230|(410) 354-2800|Certified|2006-01-31 00:00:00.0000000|-76.63345000|39.25679814|100.00000000
36469BC8-9A57-4768-9046-D437291783BF|Spectrum Health Systems, Inc.||585 Lincoln St.|Worcester|MA|1605|(508) 831-0045|Certified|2006-01-23 00:00:00.0000000|-71.76888450|42.29630100|100.00000000
3697235D-BF91-4C9B-A587-6784D2790658|Oklahoma Treatment Services|Rightway Medical of Ponca City|827 East Hubbard Road|Ponca City|OK|74601|(580) 762-3217|Certified|2017-04-11 00:00:00.0000000|-97.07276836|36.75311452|100.00000000
36A1B253-2B13-4FDB-92BC-132E590D6367|Community Health Care, Inc.|Health Care Resource Centers|441 Pleasant Street|Northampton|MA|1060|(413) 584-2404|Certified|2006-04-18 00:00:00.0000000|-72.62459769|42.31290005|100.00000000
36B494F1-D0E1-4FCC-8268-99D32F8DD115|Metro Treatment of Colorado, L.P.|Grand Junction Treatment Center|2956 North Avenue|Grand Junction|CO|81504|(970) 208-1130|Certified|2016-02-02 00:00:00.0000000|-108.50484150|39.07740452|100.00000000
36E2CAF7-C2E5-4138-9A3B-E54CA55734E2|Metro Treatment of New Hampshire, L.P.|Keene Metro Treatment|1076 West Swanzey Rd.|Swanzey|NH|3446|(603) 358-0050|Certified|2008-04-07 00:00:00.0000000|-72.34905516|42.84510848|100.00000000
36FD91E8-4E9A-4CE9-8B6C-9EDC93732C9B|Spectrum Health Systems, Inc.|New England Recovery Center|153 Oak Street|Westborough|MA|1581|844-900-6372|Certified|2016-05-10 00:00:00.0000000|-71.62684200|42.28650000|100.00000000
372CC224-7B60-4518-94A7-3F5CAFEC66E3|Crozer Chester Medical Center|Prospect Crozer Medical Center|1 medical center blvd|Upland|PA|19013|(610) 497-7459|Certified|2018-04-04 00:00:00.0000000|-75.36936799|39.85627865|100.00000000
37522C94-037E-4ACF-B099-B67CBAEDBE6F|BHG, XXX, LLC|BHG Kansas City North Treatment Center|1125 North 5th Street|Kansas City|KS|66101-2305|(913) 342-0888|Certified|2003-10-01 00:00:00.0000000|-94.62134361|39.11699677|100.00000000
37856CBE-14AB-41D5-9C9F-04F7BA1699C5|Community Medical Services- Northwest Tucson||2001 W. Orange Grove|Tucson|AZ|85704|(520) 298-1650|Certified|2018-07-03 00:00:00.0000000|-111.00888000|32.32161900|98.84000000
378CD431-2181-4842-A9F3-9D9861D398E4|Mercy Philadelphia Hospital||501 South 54th St.|Philadelphia|PA|19143|(215) 748-9391|Certified|2003-07-16 00:00:00.0000000|-75.23026717|39.95240714|100.00000000
37AA5037-AF9F-40EB-A818-61ED6A9FF73F|Summit Detox, Inc.|Summit Detox|3330 South Federal Highway|Boynton Beach|FL|33435|(561) 336-3783|Certified|2015-10-14 00:00:00.0000000|-80.06009612|26.50173807|100.00000000
37BC9D60-44EE-4A35-89B0-2FEF83C4ADF6|Best Recovery Health Care, Inc.||9211 South Main St.|Houston|TX|77025|(713) 661-0971|Certified|2003-12-01 00:00:00.0000000|-95.42170107|29.68486982|100.00000000
381EC651-3B99-4019-A72E-7F8B8BEA0925|Ocean Breeze Detox, LLC|Arete Detox|1300 Hibiscus Drive|Pembroke Pines|FL|33025|954-487-1263|Certified|2017-06-21 00:00:00.0000000|-80.25294865|25.99815319|100.00000000
3841CBA6-1D81-4083-B0F4-72C958E10B4E|We Care Daily Clinics|We Care Daily Clinics, LLC|3320 AUBURN WAY NORTH|AUBURN|WA|98002|(253) 999-5750|Certified||-122.22227101|47.33655300|100.00000000
385EBDDC-8E78-4697-AB44-5AA923BF5CAC|Starting Point of Florence||1341 N. Cashua Drive|Florence|SC|29501|(843) 673-9320|Certified|2006-11-29 00:00:00.0000000|-79.79664407|34.21938234|100.00000000
38F82361-80DD-447B-A0B4-2885ABCD4537|Harbortown Treatment Center||1022 E. Main St., P.O. Box 929|Benton Harbor|MI|49022|(269) 926-0015|Certified|2006-09-07 00:00:00.0000000|-86.43399253|42.11774155|98.00000000
3904E0C3-A229-41FA-B61E-AE9E5CB00E40|CODAC South County||350 Columbia St.|Wakefield|RI|2879|(401) 789-0934|Certified|2005-11-10 00:00:00.0000000|-71.49573336|41.45017367|100.00000000
390850CB-5518-4978-A365-2F2850918D9E|Park Heights Health Services, Inc.|Park Heights Health Services|5260 Park Heights ave|Baltimore|MD|21215|(410) 999-6299|Certified|2018-03-21 00:00:00.0000000|-76.67827950|39.34971474|100.00000000
392B3F4B-E964-4E0B-A398-238406BEB73A|Addiction Alternatives for Opiate-Heroin, Inc.|Azalea internal Medicine|PO BOX 6367|Tyler|TX|75711-6367|903596.0606|Certified|2010-07-11 00:00:00.0000000|-95.30076050|32.32107300|98.00000000
39317C84-2CC9-4A29-BC20-CA7E17DC5B12|Community Health Care, Inc.|Health Care Resource Centers|23 North Main Street|Attleboro|MA|2703||Provisional||-71.28484196|41.94509708|100.00000000
39342B59-F991-40DA-B813-9A1DCF9B9671|Beyond Your Ordinary, Inc|Beyond Your Ordinary Treatment Center|97 Atlanta St|McDonough|GA|30253|(678) 671-3547|Provisional||-84.14717862|33.45059412|100.00000000
39398230-C197-4EB2-8D89-DE0CAA21C9E9|Bradford Health Services -Warrior Medically Monitored Residential Detoxification Adult NTP||1189 Allbritton Road|Warrior|AL|35180|(205) 244-2960|Certified|2016-10-20 00:00:00.0000000|-86.87397150|33.82556400|100.00000000
3960F971-1A9C-495C-A08C-3DBD3868922C|Peoria Treatment Center||731 E. Sabrina Drive, Suite C|East Peoria|IL|61611|(309) 699-9700|Certified|2015-05-07 00:00:00.0000000|-89.54187389|40.64483456|98.87000000
399C1BA3-3391-4300-9394-D09E681E18E6|Metro Treatment of Minnesota, LP|Rochester Metro Treatment Center|2360 North Broadway|Rochester|MN|55906-4065|(507) 282-0142|Certified|2007-11-01 00:00:00.0000000|-92.45599928|44.04802001|100.00000000
39BD80B7-37A2-45F3-B6B6-D2D7D1C16420|North Philadelphia Health System-Goldman||Girard Medical Center 801 W. Girard Avenue|Philadelphia|PA|19122|(215) 787-2080|Certified|2006-06-15 00:00:00.0000000|-75.14991450|39.97142100|96.48000000
39DFBEEB-2C8E-4E82-87C2-9EC9720B4002|Berkeley Addiction Treatment Services||2975 Sacramento St.|Berkeley|CA|94702|(510) 644-0200|Certified|2003-11-16 00:00:00.0000000|-122.27897796|37.85364766|100.00000000
39E7DADD-189D-432C-A4FF-4D7976F72F60|Blue Hills Substance Abuse Services|BHSAS of Connecticut Valley Hospital|500 Vine St.|Hartford|CT|6112|(860) 293-6400|Certified|2004-03-13 00:00:00.0000000|-72.68755050|41.79639600|100.00000000
39FED173-2DA3-4605-9EE2-9AD91D6634A7|Community Medical Services- West Allis||2814 South 108th Street|West Allis|WI|53227|(414) 885-3525|Certified|2020-02-10 00:00:00.0000000|-88.04692839|42.99319336|100.00000000
3A72E224-7EB9-4B97-A046-BD88B9FF76E7|Lexington Center for Recovery, Inc.-MMTP||41 Page Park Dr., Suite 200|Poughkeepsie|NY|12601|(845) 486-2850|Certified|2004-05-01 00:00:00.0000000|-73.87201800|41.68852200|98.72000000
3ABE89F2-833A-4165-AF9C-F785DF072102|Community Health Care, Inc.|Health Care Resource Centers|125 North Elm St|Westfield|MA|1085|(413) 568-6600|Certified|2020-03-16 00:00:00.0000000|-72.74025450|42.13410300|100.00000000
3AEFD619-68FE-4FB7-BAC8-EFEC93EE6F50|START Treatment & Recovery Centers, Inc|Starting Point|119-121 West 124th St.|New York|NY|10027|(212) 932-2676|Certified|2003-06-01 00:00:00.0000000|-73.94660088|40.80744794|99.03000000
3B181B83-C455-4449-9CA4-7F45A39461F6|Lower Eastside Service Center, Inc.||46 East Broadway|New York|NY|10002|(212) 343-3550|Certified|2004-08-01 00:00:00.0000000|-73.99585068|40.71361104|100.00000000
3B2121E9-62EE-4D31-AFD5-B41460D7BBF1|Alternative Opiate Treatment Program|AOTP|1401 E Rusk|Jacksonville|TX|75766|903-284-6802|Certified|2017-01-30 00:00:00.0000000|-95.25129300|31.96567800|98.84000000
3B28A252-FB07-40A4-ACC3-CD4274069295|Center for Behavioral Health Indiana, Inc.||3910 Lima Road|Fort Wayne|IN|46805|(260) 420-6010|Certified|2005-10-13 00:00:00.0000000|-85.14527060|41.11326162|100.00000000
3B44C219-4EE4-402A-8643-0ECE34FEB97E|START Treatment & Recovery Centers, Inc||2ND & 3RD FLOORS, 2406 Amsterdam Avenue|New York|NY|10033-7320|(212) 543-2782|Certified|2003-05-31 00:00:00.0000000|-73.93174563|40.84704974|97.55000000
3B8DF099-1AA9-443F-948A-80087E754FD7|Rutland Regional Medical Center|West Ridge Center|1 Scale Ave., Bldg. 10|Rutland|VT|5701|(802) 776-5800|Certified|2014-09-04 00:00:00.0000000|-72.97478088|43.59865317|100.00000000
3B964A47-BA82-4B81-8F33-42D5505D10EC|New Horizons Treatment Center, Inc||36 Chateau Ct.|Rome|GA|30161|(706) 233-9603|Certified|2004-05-01 00:00:00.0000000|-85.15582430|34.22075386|99.55000000
3BB688C8-BFB4-4F6D-8FC8-CB209CF9C0BD|LAAM and Methadone Program Clinic||2201 SE Loop 820|Fort Worth|TX|76119|(817) 730-0367|Certified|2003-12-07 00:00:00.0000000|-97.30015204|32.66918174|100.00000000
3BC56595-7E5D-4AAC-AE25-8DB5E4298BFD|Addiction Recovery Institute - North|ADDICTION RECOVERY INSTITUTE INC|31 N UNION ST|PAWTUCKET|RI|2860|401-725-2520|Certified|2003-09-01 00:00:00.0000000|-71.38578680|41.87876304|100.00000000
3BEB079E-7640-4AB3-8BB3-8DD5223E02AE|Open Arms & Hearts Health Services, LLC||1532 Ocean Highway|Pocomoke City|MD|21851|(443) 437-7128|Provisional||-75.54328540|38.05120957|100.00000000
3C0D0F44-F946-4200-A527-E378C27E3AA7|Marin Treatment Center, Inc.|Marin Treatment Center|1466 Lincoln Ave.|San Rafael|CA|94901|(415) 457-3755|Certified|2004-01-01 00:00:00.0000000|-122.52207683|37.97998229|100.00000000
3C1FFD72-DE44-4602-8040-4101E64E4BDC|Queen City Treatment Center DBA Treatment Centers, LLC-Charlotte||6115 Hickory Grove Rd.|Charlotte|NC|28215|(704) 532-4262|Certified|2004-02-29 00:00:00.0000000|-80.72432100|35.22399300|100.00000000
3C4963B0-6B03-4D93-B81B-1594FCD28B29|The Center of Renewed Promises|The Center of Renewed Promises|1485 Hwy 34E Suite A-1|Newnan|GA|30265|(770) 502-0884|Certified|2011-10-28 00:00:00.0000000|-84.70658000|33.41941000|85.00000000
3C9640EC-5D50-4D16-8CD1-8139B46CA3C3|BAART Behavioral Health Services|Southeast Clinic|4920 South Avalon Blvd.|Los Angeles|CA|90011|(323) 235-5035|Certified|2006-09-07 00:00:00.0000000|-118.26521250|33.99813000|98.87000000
3CA5419C-2691-42B4-A4AB-6D9FC71EAD08|APT Foundation, Inc.|Ambulatory Services Center|1 Long Wharf Drive|New Haven|CT|6511|(203) 781-4357|Certified|2010-11-09 00:00:00.0000000|-72.92999700|41.28903900|100.00000000
3D1851A4-CE6B-47D0-800A-A81303033DCE|MBA Wellness Centers, LLC|MBA Wellness Centers, LLC|1233 Eagles Landing Parkway|Stockbridge|GA|30281|(770) 474-4009|Certified|2012-06-25 00:00:00.0000000|-84.22633098|33.50815818|100.00000000
3DF65D1C-70FE-4B39-8E66-7026B9FDADBD|Addictive Behavioral Change Health Group, L.L.C|Matrix Center|9918 East Harry|Wichita|KS|67207|(316) 260-3445|Certified|2011-09-20 00:00:00.0000000|-97.22254224|37.66472121|98.84000000
3E006AB7-0805-42E5-9E1C-75E2744DC31A|McLeod Addictive Diseases Center - Gastonia|McLeod Center|549 Cox Road|Gastonia|NC|28054|(704) 865-1558|Certified|2003-02-01 00:00:00.0000000|-81.13390283|35.26731883|100.00000000
3E5B8352-6DAF-4928-B955-42CDC7FFB1AA|DRD Management, Inc.|DRD Springfield Medical Clinic|404 E. Battlefield|Springfield|MO|65807|(417) 865-8045|Certified|2006-02-16 00:00:00.0000000|-93.29088150|37.15971300|98.84000000
3E90AFB0-F34D-4684-9BCF-372463483783|Austin Travis County MHMR Center Narcotic Treatment Program|Austin Travis County Integral Care|1631-A East Second St.|Austin|TX|78702|(512) 804-3380|Certified|2003-11-23 00:00:00.0000000|-97.72749000|30.25863000|99.67000000
3EA26002-28E8-436A-9F96-29D927AC0A4A|Walton County Treatment Center, LLC||3543 Highway 81|Loganville|GA|30052|(678) 615-2382|Certified||-83.87745869|33.82122461|100.00000000
3EC62726-6350-4A04-A98F-10C21983FCEE|The Journey to Hope, Health and Healing|The Journey to Hope, Health and Healing|160 Narragansett Ave.|Providence|RI|2907|(401) 941-4488|Certified|2005-04-14 00:00:00.0000000|-71.42375302|41.78906711|100.00000000
3EDE7A1D-0802-4E9F-93A7-84A92CC4E592|VAMC Opioid Treatment Program||38th and Woodland Ave., Bldg. 3|Philadelphia|PA|19104|(215) 823-5809|Certified|2006-02-02 00:00:00.0000000|-75.19945050|39.95036100|97.25000000
3EE38CD6-27B8-4788-B9FC-09B2900F5B61|BD Health Services, Inc||3955 Old North Point Road|Dundalk|MD|21222|(410) 477-0744|Certified|2008-03-25 00:00:00.0000000|-76.46952600|39.27269700|98.15000000
3EF6E00E-BE8C-4824-9881-5FDAD3929E66|Gavin Foundation, Inc.|Gavin Quincy|43 Old Colony Ave|Quincy|MA|2170|(617) 845-5778|Certified|2019-01-10 00:00:00.0000000|-71.01770338|42.26470044|100.00000000
3F01C4AE-5510-4E25-9090-92F020C43D47|Community Bridges, Inc.|Cactus Integrated Care|1520 East Pima Street|Phoenix|AZ|85034|(480) 831-7566|Certified|2020-02-14 00:00:00.0000000|-112.05019467|33.43322133|100.00000000
3F1A71A3-5237-4A0D-9085-63C64D1FB9E3|Metro Treatment of Florida, LP|Naples Metro Treatment Center|2770 Davis Blvd., Ste. 60|Naples|FL|34104|(239) 280-0487|Certified|2014-10-02 00:00:00.0000000|-81.77261537|26.13833734|100.00000000
3F2FCC54-761E-4435-B1FE-B290B7AD1F6D|Serenity Health, LLC|Serenity Health, Elkton|953 West Pulaski Highway|Elkton|MD|21921|(443) 485-6544|Certified|2013-07-22 00:00:00.0000000|-75.88858544|39.60939807|100.00000000
3F868D79-C352-43F7-A8C2-7D3BCF2DFBD6|Bloomington Normal Treatment Center||303 Landmark Drive, 2-B|Normal|IL|61761|(309) 808-2388|Certified|2014-03-17 00:00:00.0000000|-88.95479052|40.51522276|98.55000000
3FADCC42-2FC0-4E63-8AAE-F563E25C34F1|Addiction Treatment Services at Johns Hopkins Bayview -BBRC Building||5501 Nathan Shock Drive, Suite 1500|Baltimore|MD|21224|(410) 550-0133|Certified|2003-12-14 00:00:00.0000000|-76.54988981|39.29109749|100.00000000
3FC99594-3B50-4F65-944E-88E60BECD502|Veni Vidi Vici Treatment Services, LLC.|OTP|4B North Avenue, Suite 302|Bel Air|MD|21014|(443) 819-3172|Certified|2020-08-07 00:00:00.0000000|-76.36318601|39.55143220|100.00000000
3FFBE334-3709-462C-AF8C-53DE6AD0CEE5|Colorado Treatment Services - Greeley||3400 W 16TH ST STE P|Greeley|CO|80634|(970) 978-4386|Certified|2018-04-25 00:00:00.0000000|-104.73391350|40.41366300|100.00000000
40038BB9-BE23-4926-90AF-4E61347879A6|Hautoa Enterprises LLC|True North Recovery & Wellness Center|234 N. Orem Blvd.|Orem|UT|84057|(801) 691-0672|Certified|2015-01-14 00:00:00.0000000|-111.69864000|40.30168500|100.00000000
40738516-6ED4-40A8-93FE-C6E90F80536B|RCA MAT PA LLC|Delaware County Healthcare Clinic|53 N UNION AVE|LANSDOWNE|PA|19050|(484) 257-1350|Provisional||-75.26600315|39.94127609|100.00000000
4077F69F-C28B-428D-9C39-93FE021D88B4|Best Recovery Health Care, Inc.||1708 North Laurent St.|Victoria|TX|77901|(361) 572-9122|Certified|2004-02-01 00:00:00.0000000|-96.99091200|28.80970200|100.00000000
407BED82-1F30-4423-B5AE-3CB8EEACF491|Community Action Against Addiction|CAAA|5209 Euclid Avenue|Cleveland|OH|44103|(216) 881-0765|Certified|2003-07-02 00:00:00.0000000|-81.65300201|41.50420302|100.00000000
408AD33F-D919-4258-8A5E-5590F4630964|Man Alive, Inc.|Man Alive, Inc.|2117 Maryland Ave.|Baltimore|MD|21218|(410) 837-4292|Certified|2004-05-01 00:00:00.0000000|-76.61804069|39.31369206|100.00000000
40A57EA3-2AA6-4D18-A16D-0D50C7F5AD8B|Mathers Recovery, LLC||81 East Grand Ave|Fox Lake|IL|60020|(847) 462-6099|Certified|2017-09-11 00:00:00.0000000|-88.17626250|42.39657900|100.00000000
40F8A5F5-E27F-41F4-BC3C-1F0AA5B51808|Lakeview Center, Inc.|Lakeview Center, Inc.|1800 N Palafox St|Pensacola|FL|32501-2141|(850) 466-3400|Certified|2004-02-01 00:00:00.0000000|-87.21949752|30.43095056|100.00000000
41A4548F-C57A-42DC-8709-39E9059635E9|Four Corners Behavioral Health, Inc|Operation Recovery|77 South 600 East|Price|UT|84501|(801) 364-8080|Certified|2019-03-12 00:00:00.0000000|-110.79974236|39.59871367|100.00000000
41C96110-8044-4E91-AD70-5764F28616DF|Methadone Outpatient Treatment Program|Human Resources Inc.|15 West Cary St.|Richmond|VA|23220|(804) 644-4636|Certified|2004-03-29 00:00:00.0000000|-77.44597409|37.54261667|100.00000000
4218CFD5-1193-4BB3-AB19-A1A4E1E612F0|Providence Hospital Springfield Outpatient Methadone Clinic|Mercy Medical Center - MMTP|227 Mill St.|Springfield|MA|1108|(413) 452-6526|Certified|2003-12-17 00:00:00.0000000|-72.57246750|42.09368154|100.00000000
422318CF-0557-4BD4-8660-F339C198BD56|Merrimack River Medical Services, Inc.|Health Care Resource Centers|200 Route 108|Somersworth|NH|3878|(603) 953-0077|Certified|2004-09-01 00:00:00.0000000|-70.89847724|43.24262336|100.00000000
4291DC3C-2D52-439A-8A0A-8074C200B82B|Milwaukee Health Services System, LLC|River???s Shore Comprehensive Treatment Center|3707 N. Richards Street|Milwaukee|WI|53212|(414) 967-7012|Certified|2003-09-01 00:00:00.0000000|-87.90741245|43.08418605|100.00000000
42AA441E-AC1E-4C20-9A0B-887E3EB82495|MedMark Treatment Centers of Texas, Inc.|MedMark Treatment Centers San Antonio Military|7428 Military Drive West|San Antonio|TX|78227|(210) 673-8111|Certified|2006-02-13 00:00:00.0000000|-98.62847100|29.41643700|99.89000000
42B428BB-F15E-437C-96CF-E99E10596F24|Chicago Treatment and Counseling Center, Inc.||3520 S. Ashland Ave.|Chicago|IL|60609|(773) 523-3400|Certified|2003-07-01 00:00:00.0000000|-87.66556418|41.82977462|100.00000000
42C2EB45-CCBC-4B41-B6FC-09742008D004|CRC Health Treatment Clinics, LLC|North Florida Treatment Center|6639 Southpoint Pkwy, Ste 108|Jacksonville|FL|32216|(855) 380-8271|Certified|2016-05-12 00:00:00.0000000|-81.59965849|30.25828857|100.00000000
430A2562-D965-4156-B913-504D2CF6D0C5|BayMark Health Services of Ohio, Inc.|MedMark Treatment Centers Columbus East|1809 E Main St|Columbus|OH|43205|(614) 502-7022|Certified||-82.95060600|39.95698500|100.00000000
4391CC67-A789-4856-8B18-0567BF1FC6E1|Coastal Detox, Inc|Coastal Detox|1131 SE Indian Street|Stuart|FL|34997|(772) 219-1355|Certified|2017-08-01 00:00:00.0000000|-80.23834515|27.16167556|100.00000000
43A92F69-69D3-44D2-A6EF-BC293E2F0304|The Life Change Center|The Life Change Center Reno|130 Vine Street|Reno|NV|89503|(775) 499-5534|Certified||-119.82420646|39.52410740|100.00000000
43AB1D2B-8A46-4538-AE86-0D2F9CF4D33E|Habit Opco, LLC|Habit OPCO - West Lebanon|254 Plainfield Road|West Lebanon|NH|3784|(603) 298-2146|Certified|2006-01-11 00:00:00.0000000|-72.32313766|43.62799528|100.00000000
43E28A4B-4182-438E-9251-38EDD1208033|Therapeutic Health Services - Shoreline||16715 Aurora Ave North|Shoreline|WA|98133|(206) 546-9766|Certified|2006-02-09 00:00:00.0000000|-122.34569899|47.75097530|100.00000000
43FDDF82-E193-48A8-B928-6B64582BB8D5|Operation PAR Medication Assisted Patient Services||535 PINE ISLAND RD|North Fort Myers|FL|33903|(239) 656-7700|Certified|2005-05-09 00:00:00.0000000|-81.89781552|26.68191199|100.00000000
4418F146-429B-4345-96A7-F1E8DF854BC0|Mount Sinai Beth Israel O.T.P. Clinic 2|Opioid Treatment Program|1825 Park Avenue - 4th Floor|New York|NY|10035|(212) 774-3200|Certified|2003-09-18 00:00:00.0000000|-73.93869797|40.80524686|100.00000000
442383FC-3D72-4A72-8AAB-0DD496BB1926|West Oakland Health Council, Inc., Substance Abuse Service Department||700 Adeline Street|Oakland|CA|94607|(510) 302-3740|Certified|2006-07-11 00:00:00.0000000|-122.28748650|37.80420300|100.00000000
44362F10-2311-486C-877B-D2A809437E06|MedMark Treatment Centers of Alabama, Inc.|MedMark Treatment Centers Dothan|9283 W. U.S. 84|Newton|AL|36352|(334) 692-4455|Certified|2004-07-01 00:00:00.0000000|-85.54107825|31.23917713|97.10000000
44472FAD-2458-4882-8F5F-F3C9686C1CA5|Pennsylvania Adult & Teen Challenge|Pennsylvania Adult & Teen Challenge|Pennsylvania Adult Teen Challenge|Rehrersburg|PA|19550-5000|(717) 933-4148|Certified|2018-10-02 00:00:00.0000000|-76.24464200|40.45929600|86.00000000
44592C81-206E-4BF5-A8B5-E6E1A24F46C9|St. Mary's Comprehensive Outpatient Clinic|Hospital Based|4988 State Highway 30 FL 4|Amsterdam|NY|12010|(518) 843-4410|Certified|2005-05-09 00:00:00.0000000|-74.18574732|42.95831847|100.00000000
448698F3-255E-4889-8FB2-2D0723B80B1A|BHG XXXI, LLC|BHG-Dyersburg|640 Highway 51 Bypass East, Suite M|Dyersburg|TN|38024|(731) 285-6535|Certified|2009-07-07 00:00:00.0000000|-89.37713496|36.05553055|100.00000000
